"Post.Office","County","State","Established","Discontinued","Latitude","Longitude"
"ABINGTON","Colfax","NE",1872,1887,,
"ABRAM","Lincoln","KS",1872,1872,,
"ACAMPO","San Joaquin","CA",1872,,38.1746398,-121.2785588
"ADA","Ottawa","KS",1872,,39.1513917,-97.8892088
"ADAMS","Gage","NE",1872,,40.4594441,-96.5100171
"AGENCY","Missoula","MT",1872,1874,47.3279854,-114.2934517
"AILANTHUS","Ottawa","KS",1872,1882,,
"ALEXANDRIA","Thayer","NE",1872,,40.2452794,-97.3892076
"ALEXIS","Butler","NE",1872,1885,,
"ALMENA","Norton","KS",1872,,39.893306,-99.7098602
"ALMY","Uinta","WY",1872,1914,41.3316124,-111.0046287
"ALTA","Salt Lake","UT",1872,1929,40.5505042,-111.8618782
"ALTAMONT","Alameda","CA",1872,1955,37.7438175,-121.6627285
"ALTON","Sumner","KS",1872,1881,37.004081,-97.527894
"ALUM CREEK","Ellsworth","KS",1872,1882,38.7388962,-98.0308833
"AMERICAN CREEK","Brule","SD",1872,1873,43.8155503,-99.3317668
"AMITY","Jewell","KS",1872,1886,,
"ANNAVILLE","Elko","NV",1872,1874,41.8604727,-114.0564045
"ANNONA","Red River","TX",1872,,33.5813476,-94.9164565
"ANTELOPE","Antelope","NE",1872,1881,42.1700064,-98.1884044
"ANTON CHICO","Guadalupe","NM",1872,,35.2000506,-105.1422244
"ARAPAHOE","Furnas","NE",1872,,40.3041736,-99.900402
"ARNECKEVILLE","Dewitt","TX",1872,1954,,
"ASH BLUFF","Saunders","NE",1872,1873,,
"ASHBY","Houston","TX",1872,1877,,
"ATASCOSA","Bexar","TX",1872,,29.288706,-98.705993
"ATHELSTANE","Clay","KS",1872,1898,39.2055505,-97.1655752
"AURORA","Hamilton","NE",1872,,40.8672344,-98.0042212
"BALLARD","Smith","KS",1872,1874,,
"BARRY","Madison","NE",1872,1873,,
"BARTLESON","Johnson","KS",1872,1874,,
"BATIN","Webster","NE",1872,1887,40.2300133,-98.48256
"BEAVER","Boone","NE",1872,1874,41.57029,-97.8661674
"BEAVER","Osborne","KS",1872,1873,,
"BEAVER CREEK","Broadwater","MT",1872,1887,46.5163233,-111.5680267
"BEAVERTON","Washington","OR",1872,,45.4858333,-122.8105556
"BEEKMAN","Washington","KS",1872,1876,,
"BELKNAP","Chautauqua","KS",1872,1878,37.2511509,-96.345002
"BELLEGARDE","Pottawat","KS",1872,1879,,
"BELMONT","Cass","NE",1872,1888,,
"BENT CANYON","Las Animas","CO",1872,1902,37.2819611,-104.6419316
"BENTON","Butler","KS",1872,,37.7860758,-97.1059595
"BERKELEY","Alameda","CA",1872,,37.8683323,-122.2715418
"BERLIN","Riley","KS",1872,1876,,
"BERNARDO","San Diego","CA",1872,1918,32.7522721,-117.2244804
"BIG SANDY","Thayer","NE",1872,1875,,
"BILLINGSVILLE","Norton","KS",1872,1872,39.8338946,-99.8915113
"BISMARK","Saguache","CO",1872,1879,,
"BLOCKHOUSE","Klickitat","WA",1872,1930,45.8395676,-120.9375678
"BLOOMFIELD","Elk","KS",1872,1879,,
"BLUE HILL","Mitchell","KS",1872,1921,39.306953,-98.3636702
"BLUFFTON","Ottawa","KS",1872,1886,,
"BOCA","Nevada","CA",1872,1945,39.3860184,-120.0940868
"BOLIVAR","Denton","TX",1872,1906,33.3584483,-97.2452944
"BOONE","Boone","NE",1872,,41.6264005,-97.9175582
"BOREMAN","Yankton","SD",1872,1873,42.888448,-97.172753
"BOULDER CREEK","Santa Cruz","CA",1872,,37.1260578,-122.1221869
"BOWER","Jefferson","NE",1872,1901,40.2630569,-97.1805924
"BOYLE","Jefferson","KS",1872,1945,39.3402763,-95.3527507
"BRISTOL","Ellis","TX",1872,1906,32.4615287,-96.5699897
"BRITTON","Butler","KS",1872,1877,37.490298,-96.8436425
"BRONCO","Nevada","CA",1872,1891,39.3862969,-120.0226966
"BRONCO","Washoe","NV",1872,1872,39.3979642,-119.9782512
"BROOKLYN","Shelby","TX",1872,1883,,
"BRYANT","Butler","KS",1872,1885,37.555432,-96.734503
"BUG EYE","Dallas","TX",1872,1874,,
"BURLINGAME","Merrick","NE",1872,1888,,
"BURNEY VALLEY","Shasta","CA",1872,1894,40.8823811,-121.6608205
"BURRTON","Reno","KS",1872,1872,,
"BURTONS BEND","Furnas","NE",1872,1881,40.3047287,-100.010129
"BUTLER","Douglas","OR",1872,1873,43.6587309,-123.3186987
"BUTTE DISAPPOINTMENT","Lane","OR",1872,1875,43.915959,-122.8228506
"BUTTER CREEK","Morrow","OR",1872,1873,45.3531842,-119.5577997
"CABIN VALLEY","Cowley","KS",1872,1876,,
"CADDO","Bryan","OK",1872,,34.1218583,-96.2713981
"CAMP BAKER","Meagher","MT",1872,1879,46.678556,-111.1727283
"CAMP COLORADO","Coleman","TX",1872,1902,31.8832009,-99.2642269
"CANOLA","Elk","KS",1872,1879,37.3486427,-96.4505641
"CANTON","Broadwater","MT",1872,1935,46.4140996,-111.4833004
"CARLTON","Dickinson","KS",1872,,38.6872259,-97.2933586
"CARPENTERS BAR","Powell","MT",1872,1872,46.6763239,-112.501416
"CARR","Weld","CO",1872,,40.8960939,-104.8749699
"CARTER CREEK","Clay","KS",1872,1872,39.5538887,-97.0333533
"CASCA","Cowley","KS",1872,1873,,
"CASTELL","Llano","TX",1872,,30.7011789,-98.9568163
"CASTLETON","Reno","KS",1872,1957,37.8677904,-97.9692213
"CEDAR CREEK","Cass","NE",1872,,41.0366655,-96.0994583
"CEDAR MILLS","Grayson","TX",1872,1907,33.8287142,-96.8197238
"CEDAR VALLEY","Hays","TX",1872,1875,,
"CENTER POINT","Kerr","TX",1872,,29.9447865,-99.0369961
"CENTRAL POINT","Jackson","OR",1872,1957,42.3716667,-122.9125
"CENTRE BOW","Cedar","NE",1872,1875,,
"CENTREVILLE","Broadwater","MT",1872,1883,46.3402092,-111.511913
"CENTREVILLE","Turner","SD",1872,1893,43.117576,-96.961572
"CERBAT","Mohave","AZ",1872,1912,35.3136064,-114.1330093
"CHAPMAN","Dickinson","KS",1872,,38.9710489,-97.0248752
"CHEWELAH","Stevens","WA",1872,,48.2760518,-117.7142671
"CHEYENNE AGENCY","Stanley","SD",1872,1879,,
"CHILDSTOWN","Turner","SD",1872,1895,43.2708215,-97.3170044
"CHILLICOTHE","Phillips","KS",1872,1881,,
"CHRISTIANA","Greenwood","KS",1872,1876,,
"CHUGWATER","Platte","WY",1872,,41.7566391,-104.8216351
"CLAGETT","Jefferson","MT",1872,1878,46.1068718,-111.9258217
"CLANCY","Jefferson","MT",1872,1885,46.4652096,-111.9863826
"CLARENCE","Cowley","KS",1872,1872,37.0558643,-96.7683629
"CLARION","Madison","NE",1872,1899,,
"CLEAR WATER","Idaho","ID",1872,1895,45.8085121,-115.6884675
"CLEARWATER","Idaho","ID",1872,1984,45.8085121,-115.6884675
"CLEVELAND","Fort Bend","TX",1872,1879,,
"CLIMAX","Greenwood","KS",1872,1989,37.7197539,-96.2233333
"CLOVER VALLEY","Elko","NV",1872,1924,40.7549256,-115.0392103
"COALFIELD","Cherokee","KS",1872,1876,,
"COBERLY","Granite","MT",1872,1872,46.6268742,-113.1422847
"COLAN","Saunders","NE",1872,1879,41.2975026,-96.6058604
"COLBERT'S FERRY","Grayson","TX",1872,1873,,
"COLD SPRING","Jefferson","MT",1872,1924,45.9665938,-111.8994307
"COLFAX","Chautauqua","KS",1872,1906,,
"COLFAX","Whitman","WA",1872,,46.8801655,-117.3643495
"COLLINSVILLE","Grayson","TX",1872,,33.561422,-96.9114
"COLONY","Anderson","KS",1872,,38.0708626,-95.3655356
"COLUMBUS","Klickitat","WA",1872,1922,,
"COMANCHE SPRINGS","McLennan","TX",1872,1875,31.4315558,-97.4519584
"CONCORD","Contra Costa","CA",1872,,37.9776998,-121.9874609
"CORINTH","Osborne","KS",1872,1896,39.4161212,-98.5453438
"COSTILLA","Taos","NM",1872,,36.9758552,-105.5311205
"COULTERVILLE","Mariposa","CA",1872,,37.710486,-120.1979658
"COUNCIL HOUSE","Pushmataha","OK",1872,1880,,
"COURTLAND","Sacramento","CA",1872,,38.3315787,-121.5693993
"COVINGTON","Smith","KS",1872,1890,39.8144564,-98.9698035
"CRANSDALE","Cloud","KS",1872,1877,39.4811147,-97.8917096
"CRAWFORD","Madison","MT",1872,1873,45.651315,-112.3091679
"CRESWELL","Lane","OR",1872,,43.9179023,-123.0245261
"CRISTONIE","Saguache","CO",1872,1873,,
"CROOKED CREEK","McPherson","KS",1872,1876,38.203065,-97.5192065
"CROSSVILLE","Bell","TX",1872,1881,,
"CROWELL","Dodge","NE",1872,1924,41.7280556,-96.707808
"CROWELLTON","Buffalo","NE",1872,1876,40.7016778,-99.256761
"CUCHARAS","Huerfano","CO",1872,1921,37.3791796,-105.100281
"DANVILLE","Saline","NE",1872,1873,,
"DARIEN","Cowley","KS",1872,1874,,
"DARLING","Beaverhead","MT",1872,1881,45.5457598,-112.6975235
"DARREL","Smith","KS",1872,1873,,
"DATE CREEK","Yavapai","AZ",1872,1927,,
"DAWSON","Dawson","NE",1872,1872,40.7788954,-99.7398377
"DAYTON","Columbia","WA",1872,,46.3173634,-117.9752146
"DE WITT","Saline","NE",1872,,40.6472277,-97.1133703
"DEEVERSVILLE","Phillips","KS",1872,1873,39.6616746,-99.5703854
"DEL RIO","Val Verde","TX",1872,,29.362266,-100.899131
"DELAVAN","Clay","KS",1872,1880,,
"DELAWARE BEND","Cooke","TX",1872,1876,33.9292675,-96.9419514
"DELTA","Jewell","KS",1872,1888,39.7844552,-98.0878254
"DENISON CITY","Grayson","TX",1872,1886,,
"DENMARK","Lincoln","KS",1872,1954,39.0891744,-98.2870015
"DILLON","Dickinson","KS",1872,1944,38.6936161,-97.1469645
"DIXON","Coffey","KS",1872,1878,,
"DODGE CITY","Ford","KS",1872,,37.7527982,-100.0170787
"DODGE STATION","Walker","TX",1872,1881,,
"DONNEBROG","Howard","NE",1872,1874,41.1183456,-98.5459042
"DONOP","Wayne","NE",1872,1882,,
"DOUGLAS","Douglas","NE",1872,1884,,
"DRAIN","Douglas","OR",1872,,43.6587309,-123.3186987
"DRY CREEK","Madison","NE",1872,1888,42.0497284,-97.7761714
"DUCK CREEK","White Pine","NV",1872,1874,39.4124389,-114.7114039
"DUDLEY","Park","CO",1872,1880,39.2969337,-106.0716858
"EAGLE CLIFF","Wahkiakum","WA",1872,1935,46.1709434,-123.2342889
"EAGLE POINT","Jackson","OR",1872,,42.4838889,-122.7933333
"EAST WOLF","Russell","KS",1872,1887,39.0888995,-98.5317334
"EASTON","El Paso","CO",1872,1883,,
"EDEN","Fillmore","NE",1872,1887,,
"EDGAR","Clay","NE",1872,,40.3722317,-97.971432
"ELA","Otoe","NE",1872,1878,,
"ELDRIDGE","Sedgwick","KS",1872,1886,37.8250117,-97.5439343
"ELK CREEK","Glenn","CA",1872,,39.6034907,-122.5374931
"ELK CREEK","Johnson","NE",1872,,40.2861112,-96.129451
"ELLINWOOD","Barton","KS",1872,,38.3563263,-98.5786781
"ELLIOTTS","Matagorda","TX",1872,1894,,
"ELM CREEK","Buffalo","NE",1872,,40.7194545,-99.3720431
"ELM GROVE","Washington","KS",1872,1877,39.7119465,-96.8744658
"ELM MOTT","McLennan","TX",1872,,31.6707323,-97.1021893
"ELMA","Republic","KS",1872,1881,,
"ELMIRA","Mitchell","KS",1872,1895,39.3361193,-98.2586657
"EMIGRANT","Gallatin","MT",1872,1876,45.3702141,-110.7335469
"EMINENCE","Sumner","KS",1872,1872,,
"EMLEY","Osborne","KS",1872,1876,,
"EMPIRE","McPherson","KS",1872,1880,38.2902864,-97.5375393
"ENNIS","Ellis","TX",1872,,32.3277102,-96.6302037
"ETNA","Missoula","MT",1872,1875,46.4313112,-114.0964891
"EUREKA MILLS","Harris","TX",1872,1879,,
"FAIRMONT","Fillmore","NE",1872,,40.6369525,-97.585327
"FAIRVIEW","Owyhee","ID",1872,1878,43.0062716,-116.690956
"FALL CITY","King","WA",1872,,47.569511,-121.8961139
"FARGO","Cass","ND",1872,,46.878466,-96.789921
"FARLAND","McPherson","KS",1872,1887,38.1847319,-97.7547694
"FARMERSBURG","Chautauqua","KS",1872,1906,37.264495,-96.1363811
"FARRALL","Platte","NE",1872,1884,,
"FARRIS","York","NE",1872,1873,,
"FINLAY","Turner","SD",1872,1880,,
"FIRTH","Lancaster","NE",1872,,40.5325007,-96.60613
"FLANAGAN'S MILLS","Rusk","TX",1872,1877,,
"FLORESVILLE","Wilson","TX",1872,,29.128588,-98.1432501
"FLORISSANT","Teller","CO",1872,,38.9458249,-105.2894358
"FOREST HILL","Bell","TX",1872,1880,,
"FORESTVILLE","Sonoma","CA",1872,,38.4738015,-122.8949945
"FREE WILL","Osborne","KS",1872,1895,39.2486205,-98.5086764
"FRENCHTOWN","Antelope","NE",1872,1890,,
"FRESNO","Fresno","CA",1872,,36.7477272,-119.7723661
"FRESNO CITY","Fresno","CA",1872,1889,36.6610611,-120.2609938
"FRIO TOWN","Frio","TX",1872,1940,29.0194114,-99.3028176
"FROG POINT","Traill","ND",1872,1879,,
"FULDA","Chautauqua","KS",1872,1883,37.1130985,-96.3805585
"GARDEN CITY","Harvev","KS",1872,1878,,
"GARZA'S CROSSING","Bexar","TX",1872,1875,29.2832932,-98.6139084
"GIBSON STATION","Wagoner","OK",1872,1933,,
"GILLESPIE","Antelope","NE",1872,1874,,
"GLENBROOK","Douglas","NV",1872,,39.0901859,-119.9390724
"GLENDALE","Kane","UT",1872,,37.3172053,-112.5977097
"GLENFAWN","Rusk","TX",1872,1955,31.9137807,-94.8568816
"GLENVILLE","Kern","CA",1872,1874,35.7288416,-118.7036997
"GLENWOOD","Johnson","KS",1872,1881,39.0236165,-94.6935701
"GOLDEN GATE","Chautauqua","KS",1872,1876,,
"GOLDENDALE","Klickitat","WA",1872,,45.8184573,-120.8147865
"GOOD INTENT","Atchison","KS",1872,1894,39.5999976,-95.2169163
"GRAFTON","Fillmore","NE",1872,,40.6280649,-97.7139366
"GRANITE CANYON","Laramie","WY",1872,1873,41.0999831,-105.1583108
"GRAYS RIVER","Wahkiakum","WA",1872,,46.3562176,-123.6093106
"GREAT BEND","Barton","KS",1872,,38.3716447,-98.7701953
"GREEN ELM","Crawford","KS",1872,1894,37.445887,-95.0516368
"GREENFIELD","Clay","SD",1872,1906,42.8883281,-96.835876
"GREENWOOD","Custer","CO",1872,1918,38.2050032,-105.0969343
"GRIFFIN","Cuming","NE",1872,1883,,
"GUELPH","Sumner","KS",1872,1902,37.0464165,-97.2592095
"GUTHRIE","Dickson","KS",1872,1873,,
"GWENDALE","Deer Lodge","MT",1872,1878,46.1554814,-112.884207
"HALESBORO","Red River","TX",1872,1907,33.4620541,-95.3032821
"HAMPTON","Box Elder","UT",1872,1874,41.7746496,-112.0949517
"HART'S MILL","Chautauqua","KS",1872,1887,37.0408773,-96.4083376
"HASTINGS","Adams","NE",1872,,40.5861246,-98.388393
"HAW CREEK","Fayette","TX",1872,1906,30.0032779,-96.6341408
"HAWLEJEK","Bon Homme","SD",1872,1892,,
"HAYDEN'S FERRY","Maricopa","AZ",1872,1879,33.414768,-111.9093095
"HELMVILLE","Powell","MT",1872,,46.8666032,-112.9611639
"HERMAN","Washington","NE",1872,,41.6733239,-96.215017
"HERMANSVILLE","Coos","OR",1872,1881,43.0334431,-124.1234352
"HESSVILLE","Sumner","KS",1872,1881,,
"HIATTVILLE","Bourbon","KS",1872,1981,37.7222662,-94.8716353
"HICKMAN","Cherokee","KS",1872,1872,,
"HICKMAN","Lancaster","NE",1872,,40.6200009,-96.6291844
"HIGBEE","Otero","CO",1872,1925,37.7764005,-103.4593852
"HIGH VALLEY","Lake","CA",1872,1875,39.044339,-122.6680416
"HILLSDALE","Garfield","UT",1872,1886,37.7191459,-112.3821496
"HILLSIDE FARM","Harvey","KS",1872,1876,,
"HOLLAND","Dickinson","KS",1872,1906,38.7619463,-97.2794685
"HOLLENBERG","Washington","KS",1872,,39.9805597,-96.9922515
"HOT HILL","Ottawa","KS",1872,1872,39.1513917,-97.8892088
"HOWTH STATION","Waller","TX",1872,1895,,
"HUMBOLDT HOUSE","Pershing","NV",1872,1909,40.6010164,-118.2548691
"HUNSAKER","Tulare","CA",1872,1884,,
"HUTCHINS","Dallas","TX",1872,,32.64488,-96.721879
"HYMER","Chase","KS",1872,1943,38.4861237,-96.6891761
"INDIAN SPRING","Polk","TX",1872,1876,30.695779,-94.752802
"INGLETON","Crawford","KS",1872,1872,,
"INVERURY","Sevier","UT",1872,1906,38.7038587,-112.0988148
"IOLA","Cass","NE",1872,1874,,
"IOWA SLOUGH","Coos","OR",1872,1878,43.1553874,-124.2870556
"IRON MOUNTAIN","Laramie","WY",1872,,41.5463653,-105.2152565
"ISLAND STATION","Arapahoe","CO",1872,1894,39.9205405,-104.8658084
"JAMESTOWN","Stutsman","ND",1872,,46.907987,-98.710951
"JARBALO","Leavenw","KS",1872,1958,,
"JAY EU","Republic","KS",1872,1878,,
"JEFFERSON","Jefferson","NE",1872,1874,,
"JEFFERSON","Jefferson","CO",1872,1873,39.7503761,-105.0732102
"JEFFERSON ISLAND","Jefferson","MT",1872,1909,45.8599268,-111.9524875
"JERSEY CITY","Thayer","NE",1872,1872,,
"JEWELL CENTRE","Jewell","KS",1872,1880,39.7872343,-98.2100511
"JOHNSON","Pottawat","KS",1872,1873,,
"JOLON","Monterey","CA",1872,,35.9708004,-121.1760322
"JUNCTION CITY","Lane","OR",1872,,44.2180556,-123.2125
"KEARNEY JUNCTION","Buffalo","NE",1872,1875,40.6997349,-99.0745321
"KEATINGVILLE","Broadwater","MT",1872,1873,46.183262,-111.6619202
"KEECHIE","Leon","TX",1872,1890,31.5168415,-95.9532952
"KENESAW","Adams","NE",1872,,40.6211255,-98.6575705
"KENTON","Greenwood","KS",1872,1879,,
"KENTUCK","Whitman","WA",1872,1873,,
"KILCHIS","Tillamook","OR",1872,1890,45.4962156,-123.8504046
"KILDARE","Phillips","KS",1872,1881,,
"KILLCREEK","Osborne","KS",1872,1904,39.4338995,-98.7797988
"KIMEO","Washington","KS",1872,1904,39.5958341,-96.9947417
"KINGSTON","Adams","NE",1872,1888,40.4164022,-98.3456104
"KLAMATH","Klamath","OR",1872,1873,42.1776454,-121.8002811
"KLIKITAT","Klickitat","WA",1872,1880,45.8170668,-121.1525716
"KNAPPA","Clatsop","OR",1872,1943,46.1851096,-123.5859674
"KROHNE","Burleson","TX",1872,1886,,
"LA GRACIOSA","Santa Barbara","CA",1872,1889,,
"LA PAZ","Elk","KS",1872,1874,,
"LAKE","Robertson","TX",1872,1903,,
"LAKE VIEW","McPherson","KS",1872,1889,38.2250092,-97.6005979
"LAKIN","Harvey","KS",1872,1873,38.0014004,-97.5086518
"LAMAR","Ottawa","KS",1872,1958,39.2561086,-97.5747534
"LAMBERT","Merced","CA",1872,1874,,
"LAMOILLE","Elko","NV",1872,1982,40.7279826,-115.4783929
"LANDER","Douglas","NE",1872,1874,,
"LAPPIN","Nemaha","KS",1872,1876,39.8638876,-95.9391621
"LARKIN","Jackson","KS",1872,1909,39.4624973,-95.5705344
"LARNED","Pawnee","KS",1872,,38.1828368,-99.1111226
"LATHAM","Albany","WY",1872,1873,,
"LAWRENCE","Utah","UT",1872,1873,,
"LAZETTE","Cowley","KS",1872,1880,37.3161377,-96.6644686
"LEBO CREEK","Coffey","KS",1872,1880,38.2964069,-95.9052669
"LEFT HAND","Boulder","CO",1872,1879,,
"LELAND","Morris","KS",1872,1882,,
"LENA VALLEY","Lyon","KS",1872,1887,,
"LESTERVILLE","Saline","KS",1872,1875,,
"LEWISTON","Tooele","UT",1872,1882,40.3207801,-112.2121665
"LIGHTNING CREEK","Nowata","OK",1872,1883,,
"LINCOLN VALLEY","Hamilton","NE",1872,1878,40.8936237,-97.9217208
"LISBON","Chautauqua","KS",1872,1880,,
"LITTLE DUTCH","Cowley","KS",1872,1882,37.3516904,-97.0150368
"LITTLE MINERAL","Grayson","TX",1872,1879,,
"LODIANA","Rice","KS",1872,1880,38.317973,-98.062909
"LOGAN","Phillips","KS",1872,,39.6656186,-99.5739646
"LOMA PARDA","Mora","NM",1872,1900,35.8467073,-105.0758386
"LONE STAR","Butler","NE",1872,1884,41.0836209,-97.0200294
"LONG ISLAND","Phillips","KS",1872,,39.9463739,-99.5345226
"LONGSTREET","Montgomery","TX",1872,1908,30.5451999,-95.8107828
"LOON CREEK","Custer","ID",1872,1873,44.4912996,-114.853699
"LORAIN","Nemaha","KS",1872,1879,,
"LORENA","Butler","KS",1872,1902,37.6939052,-97.0839279
"LOS PINOS","Saguache","CO",1872,1877,,
"LOULSBURGH","Miami","KS",1872,1894,38.6194564,-94.6807903
"LOVELADY","Houston","TX",1872,,31.125197,-95.444976
"LOVELAND","Larimer","CO",1872,1873,40.4205389,-105.0916472
"LOWELL","Kearney","NE",1872,1943,40.6475141,-98.8473004
"LURA","Russell","KS",1872,1888,39.1105665,-98.6889633
"LYNN CREEK","Shawnee","KS",1872,1874,38.9011138,-95.5819243
"MACE","Russell","KS",1872,1874,,
"MAD RIVER","TRINITY","CA",1872,,,
"MAINE RANCH","Bent","CO",1872,1875,,
"MANITOU","El Paso","CO",1872,1936,38.9938808,-105.0569301
"MANOR","Travis","TX",1872,,30.3469799,-97.5527949
"MAPLE CITY","Cowley","KS",1872,1988,37.0558643,-96.7683629
"MAPLEWOOD","Allen","KS",1872,1872,,
"MARBLE HILL","Burnet","TX",1872,1873,,
"MARQUEZ","Leon","TX",1872,,31.2414315,-96.2582655
"MARSH VALLEY","Jewell","KS",1872,1875,,
"MARSHALL","Marin","CA",1872,,38.1632542,-122.8894394
"MARYSVALE","Piute","UT",1872,,38.4513648,-112.2318691
"MAYVIEW","Jewell","KS",1872,1904,39.6111218,-98.2314414
"MAYVILLE","Lancaster","NE",1872,1874,,
"MAYWOOD","Wyandotte","KS",1872,1909,39.1277812,-94.8252402
"MCMILLIN","Bell","TX",1872,1881,,
"MECHLIN","Yankton","SD",1872,1872,,
"MEDARY","Brookings","SD",1872,1883,44.300226,-96.792254
"MEDICINE CREEK","Buffalo","SD",1872,1873,,
"MEDICINE LODGE","Barber","KS",1872,,37.2921111,-98.584065
"MENOMINEE","Cedar","NE",1872,1902,42.7869427,-97.3745025
"MEXIA","Limestone","TX",1872,,31.6805423,-96.482338
"MIDLAND","Butler","KS",1872,1873,,
"MIDLAND","Colfax","NE",1872,1884,,
"MILLTOWN","Hutchinson","SD",1872,1953,43.4235958,-97.8017345
"MILO","Lincoln","KS",1872,1938,39.1722261,-97.9675445
"MILTON","Marion","KS",1872,1877,,
"MINERAL PARK","Mohave","AZ",1872,1912,35.3708275,-114.1530103
"MOFFAT","Bell","TX",1872,1918,31.1921194,-97.4636222
"MONT CENIS","Dickinson","KS",1872,1882,,
"MONTEZUMA","Lincoln","NV",1872,1873,38.5927285,-114.7302823
"MORANO","San Joaquin","CA",1872,1875,,
"MOREY","Nye","NV",1872,1905,38.6693772,-116.254779
"MORGANVILLE","Clay","KS",1872,,39.4681492,-97.2016782
"MOSS SPRINGS","Geary","KS",1872,1895,38.8838911,-96.53778
"MOUNT CARMEL","Kane","UT",1872,,37.247206,-112.664377
"MOUNT CENIS","Dickinson","KS",1872,1882,,
"MOUNT COFFIN","Cowlitz","WA",1872,1895,46.1287229,-122.9878905
"MOUNT GAYNOR","Hays","TX",1872,1879,30.1438191,-98.135012
"MOUNT HOOD","Wasco","OR",1872,1878,45.5378947,-121.568408
"MOUNT OLIVET","McLennan","TX",1872,1883,31.4721135,-97.0680537
"MOUNT VERNON","Chautauqua","KS",1872,1887,37.1445018,-96.1058224
"MULE CREEK","Gonzales","TX",1872,1874,29.5841218,-97.5627733
"MURDOCK","Butler","KS",1872,1902,,
"MUSCOGEE","Muskogee","OK",1872,1900,35.7717678,-95.3300403
"NANUM","Yakima","WA",1872,1876,,
"NAPONEE","Franklin","NE",1872,,40.0766788,-99.1414774
"NASBY","Sarpy","NE",1872,1887,,
"NECHESVILLE","Anderson","TX",1872,1892,31.8668353,-95.4957876
"NEGUNDA","Webster","NE",1872,1903,,
"NELSONVILLE","Austin","TX",1872,1909,29.9766127,-96.4033011
"NEW ARCADIA","Osborne","KS",1872,1879,,
"NEW BOGGY DEPOT","Atoka","OK",1872,1883,,
"NEW CHICAGO","Granite","MT",1872,1908,46.6268742,-113.1422847
"NEW ERA","Furnas","NE",1872,1881,40.2641747,-99.7145603
"NEW GOTTLAND","McPherson","KS",1872,1883,38.4497297,-97.6114276
"NEW GRANT","Clay","KS",1872,1872,,
"NEW MEMPHIS","Douglas","CO",1872,1874,,
"NEW SALEM","Cowley","KS",1872,1972,37.3105804,-96.8953117
"NEWBERN","Dickinson","KS",1872,1887,38.7291706,-97.1489086
"NEWTON","Saunders","NE",1872,1895,,
"NORTH BEND","Coos","OR",1872,,43.3988889,-124.2327778
"NORTH BLUE","Adams","NE",1872,1876,,
"NORTH LAWRENCE","Douglas","KS",1872,1885,,
"NORTON","Norton","KS",1872,,39.8338946,-99.8915113
"NOYO","Mendocino","CA",1872,1918,39.439535,-123.7902298
"OAKDALE","Antelope","NE",1872,,42.0697291,-97.9692312
"OAKWOOD","Leon","TX",1872,,31.584896,-95.8491262
"ODENSE","Neosho","KS",1872,1902,37.7031007,-95.2519248
"OENAVILLE","Bell","TX",1872,1958,31.1276785,-97.2283332
"OHIO","Turner","SD",1872,1875,,
"OLIMPO","Colusa","CA",1872,1883,,
"OLIO","Jefferson","CO",1872,1872,,
"OLIVER","Beaverhead","MT",1872,1874,45.409092,-112.7111352
"OLLIE","Butler","NE",1872,1873,41.2530686,-97.1305928
"OPHIR","Placer","CA",1872,1910,38.8960098,-121.1255027
"ORIOLE","Smith","KS",1872,1882,39.936595,-98.594106
"ORION","Stanton","NE",1872,1876,,
"ORVILLE","Hamilton","NE",1872,1880,,
"OSBORNE","Osborne","KS",1872,,39.4388994,-98.6947949
"OTT","Coos","OR",1872,1876,43.0655453,-124.1414256
"OTTO","Cowley","KS",1872,1915,37.0703097,-96.7136376
"OTWELL","Ellis","TX",1872,1872,,
"PAJARO","Monterey","CA",1872,1888,36.8949536,-121.7457829
"PALO","York","NE",1872,1887,41.0283465,-97.4022694
"PALO ALTO","Bell","TX",1872,1882,,
"PALO BLANCO","Fresno","CA",1872,1873,,
"PANGUITCH","Garfield","UT",1872,,37.8230329,-112.4374306
"PAPINAVILLE","Charles Mix","SD",1872,1872,,
"PASKENTA","Tehama","CA",1872,,39.8845994,-122.5458323
"PATCHIN","Santa Clara","CA",1872,1925,,
"PAULINE","Shawnee","KS",1872,,38.963335,-95.6905377
"PAW PAW","Elk","KS",1872,1890,,
"PAWNEE ROCK","Barton","KS",1872,,38.2652911,-98.9809292
"PAYETTE STORE","Payette","ID",1872,1881,,
"PEACE","Rice","KS",1872,1876,38.2100112,-98.2070059
"PEACH GROVE","Clay","KS",1872,1885,,
"PEACH TREE","Jasper","TX",1872,1890,,
"PEBBLE","Dodge","NE",1872,1883,,
"PETERSON","Cuming","NE",1872,1887,41.7855522,-96.5930842
"PETTIT'S","Houston","TX",1872,1950,,
"PHELPS","Walker","TX",1872,1964,30.6963049,-95.4443865
"PHILLIPSBURG","Phillips","KS",1872,,39.7453651,-99.3182226
"PINE GROVE","Elmore","ID",1872,1874,43.4840623,-115.3120262
"PINE GROVE","Spokane","WA",1872,1879,47.447115,-117.4285337
"PITTSBURGH","Mitchell","KS",1872,1881,39.3430652,-98.4708966
"PLATTE CREEK","Charles Mix","SD",1872,1883,43.2927752,-99.0098126
"PLEASANT GROVE","Kittitas","WA",1872,1881,,
"PLEASANT HOME","York","NE",1872,1888,,
"PLEASANT POINT","Cherokee","OK",1872,1873,,
"PLEASANT VALLEY","Dodge","NE",1872,1903,,
"PLUM CREEK","Dawson","NE",1872,1889,40.7788954,-99.7398377
"PLUM GROVE","Madison","NE",1872,1873,,
"PLYMOUTH","Jefferson","NE",1872,,40.3030578,-96.9889187
"POINT NEW YEAR","San Mateo","CA",1872,1874,,
"PORT GAMBLE","Kitsap","WA",1872,,47.8542606,-122.5837581
"POST OAK GROVE","Lavaca","TX",1872,1883,,
"POWELLSBURGH","Clay","KS",1872,1881,39.4277759,-97.0019605
"POWELLTON","Butte","CA",1872,1906,39.9287716,-121.5724736
"PRAIRIE CENTER","Johnson","KS",1872,1902,38.8622283,-95.0196899
"PRAIRIE CITY","Ottawa","OK",1872,1893,,
"PRAIRIE GROVE","Republic","KS",1872,1883,39.892962,-97.801648
"PRAIRIE HOME","Lancaster","NE",1872,1967,40.8647212,-96.5208432
"PRAIRIE VALLEY","Hill","TX",1872,1880,31.8771025,-97.3283454
"PRAIRIE VIEW","Jefferson","KS",1872,1873,,
"PRICHARD","Baker","OR",1872,1876,44.837379,-117.5293732
"PRINEVILLE","Crook","OR",1872,,44.2998485,-120.8344664
"PURPLE CANE","Dodge","NE",1872,1892,,
"PURSLEY","Navarro","TX",1872,1907,31.9179365,-96.5438741
"PURSLEY","Washington","KS",1872,1872,,
"RANDOLPH","Rich","UT",1872,,41.6649426,-111.1882523
"RAYMOND","Rice","KS",1872,,38.2769561,-98.4159041
"REAVESVILLE","Grayson","TX",1872,1880,,
"REBEKAH","Morris","KS",1872,1873,,
"RED BUTTES","Albany","WY",1872,1879,41.1824801,-105.5947132
"RED EARTH","Hutchinson","SD",1872,1874,,
"RED WILLOW","Red Willow","NE",1872,1912,40.2252827,-100.4973707
"REDDING","Shasta","CA",1872,,40.5865396,-122.3916754
"REDFIELD","Bourbon","KS",1872,,37.836707,-94.8810794
"REIDSVILLE","Knox","NE",1872,1880,,
"REMANTO","Sumner","KS",1872,1874,37.114194,-97.149207
"REPUBLICAN","Harlan","NE",1872,1872,40.0997339,-99.2203698
"REPUBLICAN","Minnehaha","SD",1872,1902,43.6602523,-96.7336617
"REPUBLICAN CITY","Harlan","NE",1872,,40.0997339,-99.2203698
"RICE","Navarro","TX",1872,,32.244497,-96.497693
"RICES CROSSING","Williamson","TX",1872,1907,30.4946468,-97.4552777
"RICH","Anderson","KS",1872,1883,38.0986399,-95.2180317
"RICHARDSVILLE","Wood","TX",1872,1873,,
"RICHMOND","Furnas","NE",1872,1877,,
"RIPLEY","Titus","TX",1872,1926,,
"RITO ALTO","Saguache","CO",1872,1884,,
"RIVERSIDE","Chaffee","CO",1872,1905,38.9383282,-106.1839083
"RIVERSIDE","Walker","TX",1872,,30.853502,-95.402249
"ROCK CREEK","Gilliam","OR",1872,1874,45.4970745,-120.168927
"ROCK CREEK","Jefferson","KS",1872,1959,39.2458313,-95.5371988
"ROCK CREEK","Lancaster","NE",1872,1876,,
"ROCK RIDGE","Douglas","CO",1872,1892,39.37211,-104.81391
"ROCK SPRINGS","Sweetwater","WY",1872,,41.5874644,-109.2029043
"ROCKPORT","Hanson","SD",1872,1892,43.5819266,-97.838959
"ROCKY","Erath","TX",1872,1874,,
"ROOKS CENTRE","Rooks","KS",1872,1886,39.4552881,-99.0956452
"ROSALIA","Whitman","WA",1872,,47.2360052,-117.3699117
"ROSEDALE","Wyandotte","KS",1872,1902,39.0583383,-94.6196791
"ROUND MOUNTAIN","Shasta","CA",1872,,40.7940442,-121.9419412
"ROXBURY","McPherson","KS",1872,,38.5508396,-97.430309
"RYE PATCH","Pershing","NV",1872,1916,40.4474067,-118.2895906
"RYE VALLEY","Pershing","NV",1872,1872,40.4474067,-118.2895906
"SAFFORD","Chase","KS",1872,1887,38.4000138,-96.3927797
"SAINT ELMO","Freestone","TX",1872,1874,31.9379385,-96.1819164
"SAINT IGNATIUS","Lake","MT",1872,,47.3199306,-114.0939979
"SAINT JOHN","Tooele","UT",1872,1984,40.3552219,-112.4530085
"SAINT JOSEPH","Yamhill","OR",1872,1878,45.238172,-123.1448266
"SAINT LAWRENCEBURGH","El Dorado","CA",1872,1875,,
"SAINT OLAF","Minnehaha","SD",1872,1887,43.760291,-96.740397
"SALEM","Utah","UT",1872,,40.0532882,-111.6729803
"SAN ISABEL","Saguache","CO",1872,1912,,
"SAN PEDRO","Cochise","AZ",1872,1880,31.4945418,-110.1173008
"SANDY","Blanco","TX",1872,,30.3607528,-98.469471
"SANDY","Salt Lake","UT",1872,,40.5916147,-111.8841013
"SAXON","Saline","NE",1872,1887,,
"SCAPPOOSE","Columbia","OR",1872,,45.7483333,-122.8744444
"SCOTLAND","Bon Homme","SD",1872,,43.148127,-97.71546
"SCRANTON","Osage","KS",1872,,38.7819556,-95.7321614
"SCRIBNER","Missoula","MT",1872,1873,,
"SEDALIA","Douglas","CO",1872,,39.43682,-104.96982
"SEMIAHMOO","Whatcom","WA",1872,1908,48.9937231,-122.7471191
"SEMINOLE","Carbon","WY",1872,1875,41.8724604,-106.7575337
"SHADY RUN","Placer","CA",1872,1904,39.2165663,-120.7577135
"SHARP'S CREEK","McPherson","KS",1872,1899,38.4727858,-97.7767107
"SHERMAN","Kingman","KS",1872,1873,37.6458491,-98.1136734
"SHONESBURGH","Washington","UT",1872,1876,37.1580384,-112.977717
"SILVER SPRING","Nemaha","KS",1872,1875,,
"SILVER ZONE","Elko","NV",1872,1873,40.9199282,-114.3536345
"SIVELL'S BEND","Cooke","TX",1872,1954,33.8498248,-97.2239038
"SKAGIT","Skagit","WA",1872,1904,,
"SKALKAHO","Ravalli","MT",1872,1888,46.2035325,-114.1417588
"SLAVONIA","Saunders","NE",1872,1874,,
"SMITH","Smith","KS",1872,1873,,
"SMOKY HILL","Mitchell","KS",1872,1872,,
"SOD HILL","Lancaster","NE",1872,1874,,
"SOLDIER","Republic","KS",1872,1875,,
"SOSCOL","Napa","CA",1872,1886,38.243805,-122.284973
"SOUTH BOSQUE","McLennan","TX",1872,1918,31.4884998,-97.2491742
"SOUTH GABRIEL","Burnet","TX",1872,1882,30.7051867,-98.0247416
"SOUTH MOUND","Neosho","KS",1872,1972,37.4372785,-95.2285857
"SOUTH MOUNTAIN","Owyhee","ID",1872,1877,42.7521014,-116.9234653
"SOUTHWATER","El Paso","CO",1872,1878,,
"SPARTA","Baker","OR",1872,1952,44.8709927,-117.3240768
"SPENCEVILLE","Nevada","CA",1872,1932,39.1146168,-121.2694003
"SPINK","Union","SD",1872,1914,42.8374958,-96.7417065
"SPLIT ROCK","Minnehaha","SD",1872,1887,43.54303,-96.5158765
"SPOKANE FALLS","Spokane","WA",1872,1891,47.6587803,-117.425491
"SPOTTED TAIL","Todd","SD",1872,1878,43.248923,-100.838635
"SPRING CREEK","Chautauqua","KS",1872,1907,37.1778232,-96.2813858
"SPRING LAKE","Utah","UT",1872,1882,40.0010658,-111.7463199
"SPRING PLACE","Johnson","KS",1872,1872,39.0236165,-94.6935701
"SPRING VALLEY","Madison","NE",1872,1873,,
"SPRING VALLEY","McPherson","KS",1872,1902,38.2611205,-97.4322588
"SPRINGDALE","Valley","NE",1872,1882,41.6041765,-98.8567519
"SPRINGFIELD","Mitchell","KS",1872,1881,,
"SPRUCEMOUNT","Elko","NV",1872,1884,40.5499277,-114.8717014
"STANLEY","Johnson","KS",1872,,38.8544521,-94.6657907
"STAR CITY","Beaver","UT",1872,1875,,
"STAYTON","Marion","OR",1872,,44.8016667,-122.7938889
"STEAM SPRINGS","Franklin","ID",1872,1874,,
"STEELE CITY","Jefferson","NE",1872,,40.0377816,-97.0247529
"STEWARD'S MILL","Freestone","TX",1872,1914,31.823498,-96.2016389
"STOCKDALE","Riley","KS",1872,1943,39.3083298,-96.6502839
"STOCKTON","Franklin","NE",1872,1880,,
"STOCKTON","Rooks","KS",1872,,39.4383995,-99.2782738
"STONE CORRAL","Rice","KS",1872,1880,,
"STRINGTOWN","Hays","TX",1872,1883,,
"STROMSBURG","Polk","NE",1872,,41.1141811,-97.5989405
"SULLIVAN'S BLUFF","Houston","TX",1872,1875,,
"SUNNY SIDE","Montgomery","KS",1872,1874,37.1720112,-95.8922055
"SUNSET","Republic","KS",1872,1873,,
"SUPERIOR","Nuckolls","NE",1872,,40.020847,-98.0700443
"SUTRO","Lyon","NV",1872,1920,39.2799133,-119.584064
"SWABURGH","Dodge","NE",1872,1894,,
"SWAN CITY","Saline","NE",1872,1874,40.3947247,-96.9203059
"SWANVILLE","Saline","NE",1872,1877,,
"SYLVAN GROVE","Lincoln","KS",1872,,39.0146155,-98.4011299
"SYRACUSE","Cowley","KS",1872,1872,,
"TABLE ROCK","Jackson","OR",1872,1906,42.4512357,-122.9128211
"TABOR","Bon Homme","SD",1872,,42.951036,-97.658447
"TANGENT","Linn","OR",1872,,44.5377507,-123.1096974
"TERRACE","Box Elder","UT",1872,1904,41.5035346,-113.5169446
"TEXAS CREEK","Fremont","CO",1872,1882,38.4130528,-105.5805556
"TIGER MILL","Burnet","TX",1872,1901,,
"TILDEN","Osborne","KS",1872,1874,39.4516773,-98.7870213
"TOBOXY","Pittsburg","OK",1872,1878,,
"TOLENAS","Solano","CA",1872,1914,38.2651907,-122.0055212
"TOMKIAH","Mendocino","CA",1872,1873,,
"TRASK","Tillamook","OR",1872,1906,42.4401135,-123.6095133
"TRENTON","Labette","KS",1872,1875,37.0200766,-95.3996947
"TRINITY","Trinity","TX",1872,,30.945345,-95.376041
"TRUESDELL","Phillips","KS",1872,1875,,
"TULARE","Tulare","CA",1872,,36.2088399,-119.3440045
"TURKEY CREEK","Fillmore","NE",1872,1890,,
"TURNER","Turner","SD",1872,1889,43.2297068,-96.9892167
"TURNERS","Jefferson","KS",1872,1873,,
"TURTLE BAYOU","Liberty","TX",1872,1877,29.8271652,-94.6674182
"TUSKEGEE","Creek","OK",1872,1957,35.6531416,-96.2811142
"TUSTIN CITY","Orange","CA",1872,1894,33.7452957,-117.8206102
"TWIN CREEK","Osborne","KS",1872,1915,39.2930658,-98.6753508
"UNADILLA","Otoe","NE",1872,,40.6833346,-96.2697318
"UNDERHILL","Costilla","CO",1872,1873,,
"UNION GROVE","Kaufman","TX",1872,1880,,
"UNION HILL","Kaufman","TX",1872,1876,,
"UNION VALLEY","Madison","NE",1872,1875,41.8161183,-97.4069909
"UNION VALLEY","Republic","KS",1872,1874,,
"UPTON","Miami","KS",1872,1876,,
"UTICA","Yankton","SD",1872,,42.978601,-97.497697
"VAL VERDE","Denton","TX",1872,1873,,
"VALLEY CENTER","Sedgwick","KS",1872,,37.8571663,-97.3696513
"VALLEY SPRINGS","Calaveras","CA",1872,,38.1915856,-120.8299367
"VALLEY SPRINGS","Minnehaha","SD",1872,,43.582652,-96.472819
"VALLEY VIEW","Cooke","TX",1872,,33.491503,-97.163338
"VESPER","Lincoln","KS",1872,1966,39.0319521,-98.2800569
"VILLA GROVE","Saguache","CO",1872,,38.2486102,-105.9491798
"VIOLET SPRINGS","Rice","KS",1872,1873,,
"WACONDA","Mitchell","KS",1872,1902,,
"WALKER RIVER","Douglas","NV",1872,1883,38.7940779,-119.3679384
"WALL STREET","Linn","KS",1872,1902,38.168361,-94.9155216
"WALLACE","Wallace","KS",1872,,38.917787,-101.5904452
"WALNUT CREEK","Fillmore","NE",1872,1876,,
"WALSHTOWN","Yankton","SD",1872,1902,43.0316618,-97.3256126
"WARD","Wilson","KS",1872,1901,37.591718,-95.5794255
"WARSAW","Howard","NE",1872,1885,41.1844566,-98.5578496
"WASHINGTON","Yankton","SD",1872,1873,,
"WASKOM STATION","Harrison","TX",1872,1881,,
"WATERFORD","Stanislaus","CA",1872,,37.6399313,-120.75965
"WATSON","Harlan","NE",1872,1880,,
"WELLS","Webster","NE",1872,1886,40.3222362,-98.594788
"WEST ASHER","Mitchell","KS",1872,1892,39.4811156,-97.9767109
"WEST PARADISE","Osborne","KS",1872,1874,,
"WESTERN","Saline","NE",1872,,40.3936138,-97.1980952
"WESTFIELD","York","NE",1872,1877,,
"WESTON","Yankton","SD",1872,1875,,
"WHITE CITY","Morris","KS",1872,,38.7971387,-96.7314008
"WHITE ELM","Clay","NE",1872,1873,40.4316782,-98.1058806
"WHITE POST","Montgomery","KS",1872,1874,37.2406232,-95.77887
"WICKLIFFE","York","NE",1872,1873,,
"WILD CAT","Gage","NE",1872,1880,,
"WILLIAMSPORT","Hamilton","NE",1872,1880,,
"WILLIS","Montgomery","TX",1872,,30.429701,-95.48565
"WILLOUGHBY","Jefferson","OR",1872,1879,44.509569,-120.9522556
"WILLOW CREEK","Saunders","NE",1872,1888,41.3505613,-96.8214187
"WILLOW FORKS","Morrow","OR",1872,1878,45.4956878,-119.7691938
"WOOD RIVER CENTRE","Buffalo","NE",1872,1873,40.7786252,-98.7342412
"WOODBINE","Dickinson","KS",1872,,38.7961151,-96.9586243
"WOODHULL","Chase","KS",1872,1882,,
"WOODRUFF","Rich","UT",1872,,41.5218878,-111.1624159
"YAGERVILLE","Humboldt","CA",1872,1874,,
"YAINAX","Klamath","OR",1872,1923,42.4309787,-121.4288903
"YOUNGTOWN","Marion","KS",1872,1901,38.3772376,-96.911963
"ZIONSVILLE","Washington","TX",1872,1880,30.2018815,-96.4913577
"ABRELIVILLE","Sumner","KS",1873,1873,,
"ADORA","Montague","TX",1873,1876,,
"ALBIA","Washington","KS",1873,1905,39.9894486,-97.1628119
"ALBION","Boone","NE",1873,,41.6908444,-98.0036724
"ALMA","Harlan","NE",1873,,40.0975108,-99.3620427
"ALMA","Park","CO",1873,,39.2838783,-106.0627967
"ALMA","Santa Clara","CA",1873,1952,37.1852231,-121.9871808
"ANADARKO","Caddo","OK",1873,,35.0625364,-98.2522577
"ANNABELLA","Sevier","UT",1873,,38.7086111,-112.06
"APACHE","Navajo","AZ",1873,1875,,
"APPIN","Saline","KS",1873,1875,,
"ARCONA","Jewell","KS",1873,1877,,
"ARGUSVILLE","Lassen","CA",1873,1878,,
"ASHLAND","Hunt","TX",1873,1880,,
"ASPEN","Uinta","WY",1873,1901,41.2682794,-110.9632373
"AURORA","Wise","TX",1873,1906,33.0606784,-97.5033561
"BADGER CREEK","Lyon","KS",1873,1896,38.4680686,-96.0413811
"BAINBRIDGE","Harlan","NE",1873,1888,40.2100114,-99.2920402
"BALTIMORE","Cowley","KS",1873,1885,37.4364104,-96.7647517
"BANNER","San Diego","CA",1873,1907,33.0689332,-116.5461292
"BARCLAY","Osage","KS",1873,1955,38.5772329,-95.8802665
"BARNESVILLE","Johnson","TX",1873,1890,32.3515328,-97.1533422
"BARTLETT SPRINGS","Lake","CA",1873,1935,39.1837784,-122.7044335
"BATTLE CREEK","Lincoln","KS",1873,1879,39.1625055,-98.099494
"BATTLE CREEK","Madison","NE",1873,,41.9994496,-97.5983892
"BEALE SPRING","Mohave","AZ",1873,1876,35.2043913,-114.0830635
"BEAVER CITY","Furnas","NE",1873,,40.1375072,-99.8295648
"BELL'S STATION","Santa Clara","CA",1873,1914,37.0366122,-121.3107635
"BELLVILLE","Polk","NE",1873,1875,,
"BELVIDERE","Thayer","NE",1873,,40.2519471,-97.5578197
"BEN FICKLIN","Tom Green","TX",1873,1883,,
"BENNETTSVILLE","Russell","KS",1873,1874,,
"BENNINGTON","Bryan","OK",1873,,34.0047966,-96.0373346
"BERENDO","Madera","CA",1873,1919,37.0402237,-120.1535014
"BIG PRAIRIE","Lane","OR",1873,1879,43.7681792,-122.4889396
"BIG TUSK","Choctaw","OK",1873,1875,,
"BIG VALLEY","Lassen","CA",1873,1877,41.1218331,-121.1408061
"BIRDSDALE","Bell","TX",1873,1881,,
"BIRDVILLE","Tarrant","TX",1873,1906,32.8045737,-97.2594592
"BISHOP","Jewell","KS",1873,1892,39.8847342,-98.0217114
"BISMARCK","Burleigh","ND",1873,,46.809078,-100.788258
"BLACK HAWK","Osborne","KS",1873,1879,,
"BLANCO","Monterey","CA",1873,1941,36.678292,-121.7413374
"BLOOMINGTON","Franklin","NE",1873,,40.0941794,-99.0370287
"BLUFF CENTRE","Clay","SD",1873,1893,42.9208283,-97.0892156
"BLUFFTON","Llano","TX",1873,,30.8216081,-98.4917528
"BORDEN","Madera","CA",1873,1906,36.9299466,-120.0265489
"BOREMAN","Union","SD",1873,1873,42.602785,-96.559487
"BOVINE BEND","Austin","TX",1873,1886,,
"BRACKETTVILLE","Kinney","TX",1873,,29.30933,-100.415046
"BRADFORD","Saunders","NE",1873,1879,,
"BRANDON","Hill","TX",1873,,32.0431598,-96.964377
"BRAZOS  POINT","Bosque","TX",1873,,32.1870907,-97.6191901
"BRIDGEPORT","Wise","TX",1873,,33.21067,-97.753882
"BROOKFIELD","Moody","SD",1873,1887,43.906125,-96.654389
"BROOKSTON","Lamar","TX",1873,,33.6233485,-95.6998616
"BROWN'S CREEK","Mitchell","KS",1873,1875,39.4688969,-98.166995
"BROWNSBOROUGH","Jackson","OR",1873,1892,42.4681827,-122.7100366
"BRUSHY CREEK","Anderson","TX",1873,1925,31.9576644,-95.6149581
"BUCHANAN","Madera","CA",1873,1904,37.1868901,-119.9915532
"BUCKAN","Cuming","NE",1873,1883,,
"BURBANK","Clay","SD",1873,,42.745276,-96.8292077
"BURNS STATION","Dewitt","TX",1873,1877,,
"BURNT CREEK","Greenwood","KS",1873,1874,37.7878033,-96.4127873
"BURRTON","Harvey","KS",1873,,38.0194515,-97.6715348
"BUTTE CITY","Glenn","CA",1873,,39.4646072,-121.9899751
"BUTTER CREEK","Umatilla","OR",1873,1881,45.4673473,-119.0944476
"BYERS","Arapahoe","CO",1873,,39.7119444,-104.9902778
"CAIRO","Butler","NE",1873,1873,,
"CALDWELL","Gage","NE",1873,1885,40.3133343,-96.827527
"CALLISBURG","Cooke","TX",1873,1902,33.6978844,-97.0088971
"CALLS FORT","Box Elder","UT",1873,1887,41.6083333,-112.0583333
"CAMP CREEK","Osage","KS",1873,1874,,
"CAMP HUALAPAI","Yavapai","AZ",1873,1879,,
"CAMP SUPPLY","Woodward","OK",1873,1889,,
"CAMP VERDE","Yavapai","AZ",1873,,34.5652435,-111.8614523
"CANNON","Tooele","UT",1873,1881,39.9879978,-113.2241442
"CAPELL","Napa","CA",1873,1914,38.452965,-122.2066405
"CAPIOTE","Gonzales","TX",1873,1874,,
"CARIBOO","Butler","KS",1873,1889,37.9208491,-97.0828127
"CARISBROOK","Furnas","NE",1873,1887,,
"CARLETON","Thayer","NE",1873,,40.3005604,-97.6786532
"CARMEL","Butler","NE",1873,1877,,
"CARMEL","Cloud","KS",1873,1894,39.443053,-97.4350318
"CARY'S FERRY","Delaware","OK",1873,1888,,
"CEDAR BLUFFS","Decatur","KS",1873,1958,39.9788944,-100.5618147
"CENTORIA","Kearney","NE",1873,1878,,
"CERRO GORDO","Jewell","KS",1873,1888,,
"CHAHINKAPA","Richland","ND",1873,1874,46.265557,-96.613855
"CHALK MOUND","Wabaunsee","KS",1873,1894,38.7736158,-96.2988865
"CHANUTE","Neosho","KS",1873,,37.6792135,-95.4572034
"CHARLESTON","Greenwood","KS",1873,1884,37.6428156,-96.042489
"CHEEVER","Dickinson","KS",1873,1885,39.0874965,-97.2044647
"CHERRY CREEK","White Pine","NV",1873,1974,39.9004891,-114.8858603
"CHINA SPRING","McLennan","TX",1873,,31.5918309,-97.2975096
"CHINO","San Bernardino","CA",1873,,34.0222343,-117.6856105
"CHLORIDE","Mohave","AZ",1873,,35.4147157,-114.1994006
"CHOLAME","San Luis Obispo","CA",1873,,35.7238556,-120.2965384
"CLARKSTON","Lewis & Clark","MT",1873,1884,,
"CLARNO","Bon Homme","SD",1873,1875,,
"CLAUDA","Cuming","NE",1873,1873,,
"CLOUDY","Cuming","NE",1873,1884,,
"COAL CREEK","Fremont","CO",1873,,38.3611112,-105.1483222
"COLBERT'S STATION","Bryan","OK",1873,1881,,
"COLLEGE CITY","Colusa","CA",1873,,39.0079525,-122.0066352
"CONCEPCION","Duval","TX",1873,,27.395346,-98.352814
"COOS CITY","Coos","OR",1873,1884,43.3012221,-124.2123333
"COOS RIVER","Coos","OR",1873,1875,43.3776126,-124.1012181
"CORBETT'S STATION","Bingham","ID",1873,1879,,
"CORNUCOPIA","Elko","NV",1873,1883,41.5349031,-116.292318
"COVERT","Osborne","KS",1873,,39.2802884,-98.8109127
"CRAB CREEK","Lincoln","WA",1873,1904,47.3212588,-118.5908226
"CRANE'S MILL","Comal","TX",1873,1935,29.9207714,-98.2902917
"CRESWELL","Marion","KS",1873,1901,38.260567,-97.2378086
"CRESWELL","York","NE",1873,1888,,
"CRITTENDEN","Santa Cruz","AZ",1873,1901,31.5770367,-110.7289733
"CROUNSE","Lancaster","NE",1873,1901,,
"CRYSTAL PLAINS","Smith","KS",1873,1888,39.6680668,-98.6520142
"CULBERTSON","Hitchcock","NE",1873,,40.2297222,-100.838491
"CULVER","Ottawa","KS",1873,1984,38.9708357,-97.7589273
"CUMMINGSVILLE","Atchison","KS",1873,1884,39.4627757,-95.2474709
"DANBURY","Red Willow","NE",1873,1888,40.0394503,-100.4043111
"DARLINGTON","Canadian","OK",1873,1918,35.5725048,-97.9577446
"DARLINGTON","Harvey","KS",1873,1873,,
"DAVID CITY","Butler","NE",1873,,41.2527908,-97.1300372
"DAVIDSON","Boulder","CO",1873,1878,39.9930408,-105.1560972
"DAVIS RANCH","Laramie","WY",1873,1908,41.5374761,-104.2030121
"DAYTON","Bon Homme","SD",1873,1874,,
"DAYTON","Boone","NE",1873,1882,41.560013,-98.1445085
"DAYTON","Lassen","CA",1873,1875,,
"DEER CREEK","Utah","UT",1873,1875,40.4821745,-111.6468668
"DEL NORTE","Rio Grande","CO",1873,,37.6788919,-106.3533684
"DELHI","Caldwell","TX",1873,1929,29.8274481,-97.3955486
"DELL RAPIDS","Minnehaha","SD",1873,,43.832174,-96.704868
"DELMORE","McPherson","KS",1873,1902,38.4977847,-97.5458689
"DEWEY","Aurora","SD",1873,1875,,
"DEWEYVILLE","Box Elder","UT",1873,1975,41.7104845,-112.0902281
"DEXTER","Cooke","TX",1873,1955,33.8187146,-96.9636182
"DILLEY","Washington","OR",1873,1961,45.4902778,-123.1275
"DIVIDE","Silver Bow","MT",1873,,45.7502038,-112.7547513
"DIXIE","Cowley","KS",1873,1873,,
"DOANE","Washington","KS",1873,1875,,
"DODSONVILLE","Las Animas","CO",1873,1876,,
"DORRENCE","Russell","KS",1873,1883,38.8466777,-98.5895156
"DOW CREEK","Lyon","KS",1873,1874,38.4414022,-96.1872183
"DRAGOON","Osage","KS",1873,1900,38.7025072,-95.8241536
"DRESDEN","Otoe","NE",1873,1887,,
"DREW'S VALLEY","Lake","OR",1873,1886,42.2276572,-120.6927441
"DRY CREEK","Twin Falls","ID",1873,1874,42.4990806,-114.1528063
"DUCKWATER","Nye","NV",1873,1985,38.9324325,-115.7144847
"ECLIPSE","Coffey","KS",1873,1883,,
"EDEN PRAIRIE","McPherson","KS",1873,1883,38.4733453,-98.8317534
"EDENDALE","Alameda","CA",1873,1875,37.6955421,-122.1178089
"ELBEE","Burleson","TX",1873,1880,,
"ELGIN","Bastrop","TX",1873,,30.3480173,-97.3713948
"ELIVON","Harvey","KS",1873,1887,38.1383437,-97.4314267
"ELLA","Bent","CO",1873,1876,,
"ELLENSBURGH","Kittitas","WA",1873,1894,46.9965144,-120.5478474
"ELMDALE","Chase","KS",1873,,38.3736255,-96.6447322
"ELMIRA","Solano","CA",1873,,38.3499108,-121.907186
"ELMO","Kaufman","TX",1873,,32.7223712,-96.1623573
"EMERICK","Madison","NE",1873,1920,41.9019519,-97.7367234
"EMMETT","San Benito","CA",1873,1908,36.6574589,-121.1554766
"ENCINO","Los Angeles","CA",1873,1968,34.16195,-118.50254
"ENTERPRISE","Dickinson","KS",1873,,38.9028202,-97.1187213
"EUGENIA","Rice","KS",1873,1874,38.4500104,-98.3114528
"EUREKA","Lincoln","NE",1873,1874,,
"EVA","Fillmore","NE",1873,1874,,
"EVERETT","Woodson","KS",1873,1887,37.9805874,-95.6569291
"EWARTSVILLE","Whitman","WA",1873,1891,46.7032171,-117.3023984
"EWINTON","Burleigh","ND",1873,1873,46.809078,-100.788258
"FAIRFIELD","Clay","NE",1873,,40.4316782,-98.1058806
"FAIRVIEW","Coos","OR",1873,1913,43.2167775,-124.0737143
"FALL RIVER MILLS","Shasta","CA",1873,,41.0046076,-121.4383139
"FARMERSVILLE","Osage","KS",1873,1879,,
"FARMS","McPherson","KS",1873,1887,38.2763976,-97.5025385
"FISKVILLE","Travis","TX",1873,1901,30.3507613,-97.6850049
"FLAT HEAD LAKE","Missoula","MT",1873,1875,47.8868683,-114.1315966
"FLINT HILL","Medina","TX",1873,1880,,
"FLORENCE","Fremont","CO",1873,,38.3902777,-105.1185988
"FONTANA","Miami","KS",1873,,38.4286081,-94.8374605
"FORNEY","Kaufman","TX",1873,,32.749115,-96.4694301
"FORT ABRAHAM LINCOLN","Morton","ND",1873,1894,46.7594388,-100.8442959
"FORT FETTERMAN","Converse","WY",1873,1899,42.8380227,-105.4777656
"FRESNO FLATS","Madera","CA",1873,1912,37.3279997,-119.6493154
"GARFIELD","Pawnee","KS",1873,,38.0802924,-99.2445538
"GARLY","Cloud","KS",1873,1876,,
"GARRETT'S BLUFF","Lamar","TX",1873,1905,33.8714905,-95.7207991
"GASTON","Washington","OR",1873,,45.4355556,-123.1438889
"GATES","Madison","NE",1873,1875,,
"GAYVILLE","Yankton","SD",1873,,42.888448,-97.172753
"GENEVA","Fillmore","NE",1873,,40.5269512,-97.5958818
"GILROY HOT SPRINGS","Santa Clara","CA",1873,1934,37.1088329,-121.4788272
"GLADEWATER","Gregg","TX",1873,,32.5356703,-94.9451733
"GLEASON","Platte","NE",1873,1880,,
"GLENHAM","Las Animas","CO",1873,1874,,
"GLENMARK","Mendocino","CA",1873,1874,,
"GLENVILLE","Clay","NE",1873,1914,40.5041799,-98.2531079
"GLENWOOD","Clay","SD",1873,1887,43.0777672,-96.835045
"GNARLED OAKS","Washington","TX",1873,1874,,
"GOLDEN CITY","Rice","KS",1873,1875,38.4916766,-98.239227
"GOLDRINSEY","Saline","NE",1873,1884,,
"GONZALES","Monterey","CA",1873,,36.5074629,-121.4435473
"GOTHLAND","Union","SD",1873,1891,43.0688778,-96.7064304
"GRAHAM","Graham","KS",1873,1879,,
"GRAHAM","Young","TX",1873,,33.11544,-98.580329
"GRANADA","Prowers","CO",1873,,38.0638982,-102.3104674
"GRAND CENTRE","Osborne","KS",1873,1889,39.146848,-98.760198
"GRANITE BLUFF","Phillips","KS",1873,1880,,
"GRAPELAND","Houston","TX",1873,,31.490285,-95.480698
"GRAYTOWN","Wilson","TX",1873,1912,29.2082971,-98.3191788
"GREENLAND","Douglas","CO",1873,1959,39.1824913,-104.8552575
"GRIMM","Wabaunsee","KS",1873,1883,,
"GUADALOUPE","Santa Barbara","CA",1873,1915,34.971644,-120.5718363
"GUEMES","Skagit","WA",1873,1910,48.5301046,-122.6248949
"HAILVILLE","Houston","TX",1873,1883,,
"HALLECK","Elko","NV",1873,,40.9507552,-115.452839
"HALSTEAD","Harvey","KS",1873,,38.0002893,-97.5061517
"HALTOMES","Montgomery","TX",1873,1878,,
"HANGMANS CREEK","Benewah","ID",1873,1873,,
"HANGMANS CREEK","Spokane","WA",1873,1881,47.6598908,-117.4577144
"HARLAN","Harlan","NE",1873,1873,,
"HAVANA","Madison","MT",1873,1874,45.5860395,-111.4719094
"HAVEN","Reno","KS",1873,,37.9055662,-97.7785189
"HAWKINS","Wood","TX",1873,,32.599284,-95.207228
"HEBRON","Clay","KS",1873,1882,39.324439,-97.2400244
"HEBRON","Saline","KS",1873,1873,,
"HELOTES","Bexar","TX",1873,,29.5625932,-98.6788114
"HENLEYVILLE","Tehama","CA",1873,1936,39.9618224,-122.3266608
"HEPPNER","Morrow","OR",1873,,45.3575,-119.5511111
"HICKORY GROVE","Limestone","TX",1873,1875,31.7607233,-96.123025
"HILL CREEK","Bosque","TX",1873,1891,32.139313,-97.7055815
"HILL GOVE","Gove","KS",1873,1879,,
"HILLIARD","Uinta","WY",1873,1902,41.1377252,-110.8118414
"HILTONVILLE","Weld","CO",1873,1875,,
"HOLLAND","Lancaster","NE",1873,1976,40.5963894,-96.5916838
"HOMANSVILLE","Utah","UT",1873,1887,39.9749505,-112.0841118
"HOT SPRINGS","Churchill","NV",1873,1874,39.7887995,-119.017663
"HUMBOLDT","Hunt","TX",1873,1882,,
"HUND'S STATION","Leavenworth","KS",1873,1901,39.3527767,-94.9919095
"HUNTINGTON","Elko","NV",1873,1931,40.2763185,-115.675889
"HUNTSVILLE","Buffalo","NE",1873,1877,,
"IBATON","Jewell","KS",1873,1886,,
"IDA","Republic","KS",1873,1885,39.1083313,-97.4989179
"IGO","Shasta","CA",1873,,40.5054281,-122.5416799
"INAVALE","Webster","NE",1873,,40.0914028,-98.6495118
"INDIAN CREEK","Elk","KS",1873,1882,37.5419828,-96.0716535
"INDIAN CREEK","Elmore","ID",1873,1874,,
"INDIAN CREEK","York","NE",1873,1888,40.7747302,-97.2958799
"INDIAN VALLEY","Adams","ID",1873,,44.5571091,-116.4340347
"INDIAN VALLEY","Union","OR",1873,1881,45.5179176,-117.8843766
"INDIANOLA","Red Willow","NE",1873,,40.2344497,-100.4173683
"INGALLS","Lincoln","KS",1873,1888,39.1891751,-98.3683932
"ISLAND CITY","Union","OR",1873,1959,45.3375,-118.0472222
"JACKSON","Gunnison","CO",1873,1893,,
"JACOB CITY","Tooele","UT",1873,1887,40.3866121,-112.276335
"JAMESBURGH","Sedgwick","KS",1873,1880,37.7211239,-97.4814351
"JEFFERSON","Union","SD",1873,,42.602785,-96.559487
"JOHNSON","Nemaha","NE",1873,,40.4108337,-95.9980593
"JOSEPHINE","San Luis Obispo","CA",1873,1883,35.555805,-120.8885144
"JUDSON","Furnas","NE",1873,1874,,
"JUNCTION","Nye","NV",1873,1906,39.0896513,-117.1320324
"KAM","Gage","NE",1873,1884,,
"KEATSKOTOOS","Platte","NE",1873,1882,,
"KELSO","Howard","NE",1873,1894,41.1627899,-98.6711863
"KILGORE","Gregg","TX",1873,,32.388921,-94.871954
"KINGMAN","Kingman","KS",1873,,37.6616841,-98.1150284
"KINGSVILLE","Bowie","TX",1873,1880,,
"KINGSVILLE","Shawnee","KS",1873,1914,39.1180546,-95.9072104
"KIOWA","Thayer","NE",1873,1903,40.1911173,-97.7544852
"KYLEVILLE","Houston","TX",1873,1874,,
"LA CUESTA","San Miguel","NM",1873,1873,35.0783807,-106.5069669
"LA HONDA","San Mateo","CA",1873,,37.3239545,-122.2780798
"LAGUNITA","Inyo","CA",1873,1876,,
"LAKE CITY","Barber","KS",1873,,37.3533557,-98.8209282
"LAKE CITY","Lincoln","SD",1873,1877,,
"LAKE VILLAGE","Brookings","SD",1873,1880,44.2610802,-96.8183877
"LAKEPORT","Klamath","OR",1873,1875,42.1776454,-121.8002811
"LAMARTINE","Greeley","NE",1873,1881,,
"LANARK","Cass","TX",1873,1877,33.1820737,-94.1493541
"LANDRUM","Falls","TX",1873,1882,,
"LANGDON","Reno","KS",1873,1989,37.8539044,-98.3245146
"LANIER","Cass","TX",1873,1929,32.9354117,-94.3738044
"LAPEER","Douglas","KS",1873,1902,38.7980607,-95.4460887
"LAS COLONIAS","Guadalupe","NM",1873,1899,35.3744821,-106.4855813
"LAVENDER","Bent","CO",1873,1874,,
"LEBANON","Red Willow","NE",1873,,40.0505614,-100.276252
"LENA","Morrow","OR",1873,1942,45.3998401,-119.2819605
"LEONA","Doniphan","KS",1873,1986,39.7872224,-95.3216436
"LEONVILLE","Reno","KS",1873,1873,37.8539044,-98.3245146
"LEWIS","Madison","MT",1873,1883,45.616595,-111.5619137
"LEWIS RIVER","Clark","WA",1873,1877,,
"LIDA","Esmeralda","NV",1873,1932,37.4582645,-117.4981383
"LIDA","Inyo","CA",1873,1873,,
"LINCOLN","Lincoln","NM",1873,,33.4920276,-105.3838716
"LITTLE BLUE","Adams","NE",1873,1879,40.4158464,-98.3072752
"LITTLE VALLEY","McPherson","KS",1873,1888,,
"LIVINGSTON","Merced","CA",1873,,37.3868826,-120.7235329
"LOCUST GROVE","Mayes","OK",1873,,36.2022914,-95.155879
"LOCUST GROVE","Rusk","TX",1873,1875,,
"LODI","San Joaquin","CA",1873,,38.1301968,-121.2724473
"LOMA","Saguache","CO",1873,1875,,
"LONGMONT","Boulder","CO",1873,,40.1624893,-105.104329
"LOOKING GLASS","Platte","NE",1873,1904,41.6338999,-97.7447753
"LOPEZ ISLAND","San Juan","WA",1873,1895,48.5271618,-122.9117721
"LOS BANOS","Merced","CA",1873,,37.0582786,-120.8499151
"LOST CREEK","Linn","KS",1873,1877,,
"LOUP CITY","Sherman","NE",1873,,41.275565,-98.9667532
"LOVEJOY","Clay","KS",1873,1876,39.1333293,-97.1714082
"LOWER COWLITZ","Cowlitz","WA",1873,1874,,
"LUKFATA","McCurtain","OK",1873,1917,33.980873,-94.667136
"LULU","Mitchell","KS",1873,1878,,
"LYNDALE","Smith","TX",1873,1874,32.510656,-95.410201
"LYNDEN","Furnas","NE",1873,1888,40.1302843,-99.9698492
"LYNDEN","Whatcom","WA",1873,,48.9424838,-122.4548167
"MACES HOLE","Pueblo","CO",1873,1876,38.0750064,-104.986655
"MACON","Franklin","NE",1873,1955,40.205013,-98.9525813
"MAPLE GROVE","Clay","KS",1873,1873,,
"MAPLE GROVE","Lincoln","SD",1873,1892,43.2816493,-96.8350483
"MARIA","Leavenworth","KS",1873,1890,39.1027805,-94.9835778
"MARIETTA","Madison","NE",1873,1881,,
"MARIPOSA","Missoula","MT",1873,1874,46.2129787,-113.5503515
"MARQUETTE","McPherson","KS",1873,,38.5391745,-97.8319894
"MARSHALL","Clay","NE",1873,1879,40.5211227,-98.0558816
"MARSHLAND","Columbia","OR",1873,1960,46.1112216,-123.285678
"MARY'S CREEK","Parker","TX",1873,1879,,
"MARYSVILLE","Baker","OR",1873,1877,44.5721065,-117.1940685
"MARYSVILLE","Cooke","TX",1873,1942,33.77066,-97.3341849
"MARYSVILLE","Seward","NE",1873,1905,40.9666775,-97.2086515
"MARYVILLE","Maricopa","AZ",1873,1874,33.4797668,-111.8340304
"MCADAMS STORE","Walker","TX",1873,1875,,
"MCALISTER","Pittsburg","OK",1873,1885,34.9368439,-95.7410344
"MCCOOK","Union","SD",1873,1911,42.5402725,-96.4969755
"MCLAINSBOROUGH","Hill","TX",1873,1881,,
"MCPHERSON","McPherson","KS",1873,,38.3674232,-97.6567784
"MECKLING","Clay","SD",1873,,42.8424963,-97.0694924
"MEDICINE CREEK","Furnas","NE",1873,1880,40.2833398,-100.1665256
"MELISSA","Collin","TX",1873,,33.28227,-96.568484
"MELROSE","Harlan","NE",1873,1873,40.129177,-99.4553802
"MENDOTA","Decatur","KS",1873,1873,,
"MERIDEN","Jefferson","KS",1873,,39.1888874,-95.5697001
"MIDDLE CADDO","Hunt","TX",1873,1874,,
"MIDDLETOWN","Wilson","KS",1873,1903,37.7197641,-95.8333183
"MIDWAY","Furnas","NE",1873,1878,,
"MILLARD","Douglas","NE",1873,1967,41.2083323,-96.1211301
"MILLER","Mendocino","CA",1873,1908,,
"MILLERS","Linn","OR",1873,1894,44.680955,-123.0614829
"MILLERTON","Milam","TX",1873,1876,30.5740906,-97.0855437
"MILTON","Umatilla","OR",1873,1951,45.9326346,-118.3877435
"MITCHELL","Wheeler","OR",1873,,44.565,-120.1533333
"MOLTKE","Wabaunsee","KS",1873,1873,,
"MONTEREY","Hill","TX",1873,1880,,
"MONUMENT","Santa Cruz","AZ",1873,1880,,
"MOREHEAD","Labette","KS",1873,1954,,
"MORRISON","Jefferson","CO",1873,,39.6514798,-105.1931992
"MOUND","Phillips","KS",1873,1882,,
"MOUNT HOPE","Sedgwick","KS",1873,,37.8692221,-97.6707116
"MOUNT JULIET","Travis","TX",1873,1877,,
"MOUNT LIBERTY","Reno","KS",1873,1886,,
"MOUNTAIN","Latimer","OK",1873,1886,,
"MOUNTAINDALE","Washington","OR",1873,1935,45.6248366,-123.038996
"MUD CREEK","Marion","KS",1873,1886,38.440291,-97.073077
"MUNSON","Morris","KS",1873,1875,,
"MUSQUITO GULCH","Calaveras","CA",1873,1878,38.3540801,-120.5849283
"NAOMI","Mitchell","KS",1873,1885,39.4230652,-98.3675584
"NAPAVINE","Lewis","WA",1873,,46.5784385,-122.9056783
"NECHE","Pembina","ND",1873,,48.9833188,-97.551277
"NELIGH","Antelope","NE",1873,,42.1286177,-98.0297887
"NELSON","Butte","CA",1873,1975,39.5521077,-121.7655315
"NELSON","Cloud","KS",1873,1888,39.5236104,-97.5355917
"NEW CAMBRIA","Saline","KS",1873,,38.8791678,-97.5058645
"NEW CHILLICOTHE","Dickinson","KS",1873,1901,39.0897192,-97.0739046
"NEW CINCINNATI","Rice","KS",1873,1882,,
"NEW HOPE","Wilson","TX",1873,1880,,
"NEW LIBERTY","Republic","KS",1873,1880,,
"NEW LONDON","Reno","KS",1873,1881,,
"NEW WAVERLY","Walker","TX",1873,,30.539323,-95.482656
"NEWPORT","San Jacin","TX",1873,1874,,
"NICKERSON","Reno","KS",1873,,38.149439,-98.0775807
"NILES","Alameda","CA",1873,1960,37.5766465,-121.98475
"NIWOT","Boulder","CO",1873,,40.103228,-105.1730508
"NOOKSACHK","Whatcom","WA",1873,1899,48.9276179,-122.3215466
"NORMAN","Cass","ND",1873,1900,46.6588547,-96.9434195
"NORTH FRANKLIN","Franklin","NE",1873,1875,40.2983478,-98.7320163
"NORTH LOUP","Valley","NE",1873,,41.4952891,-98.773137
"NORWAY","Yankton","SD",1873,1904,43.1605485,-97.596177
"OAK GROVE","Tarrant","TX",1873,1901,32.5795809,-97.292515
"OAK RIDGE","Elk","KS",1873,1882,,
"OAK VALLEY","Hill","TX",1873,1880,,
"OAKVILLE","Grays Harbor","WA",1873,,46.8405795,-123.2331753
"OASIS","Mono","CA",1873,1942,37.4877096,-117.91565
"OASIS","Saline","KS",1873,1880,,
"ODESSA","Yankton","SD",1873,1880,43.0986057,-97.5914543
"OGALALLA","Keith","NE",1873,1882,41.1280481,-101.7196184
"OHIO CENTRE","Sedgwick","KS",1873,1887,37.5205737,-97.395046
"OHIO GROVE","Ottawa","KS",1873,1879,,
"OKETO","Marshall","KS",1873,,39.9636134,-96.5997429
"OLEAN","Colfax","NE",1873,1877,41.7361158,-96.9453124
"OLESBURGH","Pottawatamie","KS",1873,1887,,
"OLIVET","Hutchinson","SD",1873,,43.240623,-97.674776
"ORANGE","Orange","CA",1873,,33.79578,-117.84807
"ORCAS ISLAND","San Juan","WA",1873,1898,48.6988033,-122.9025461
"ORD","Valley","NE",1873,,41.6033429,-98.9261987
"ORLEANS","Harlan","NE",1873,,40.129177,-99.4553802
"OSAGE AVENUE","Pueblo","CO",1873,1882,,
"OTIS","Hamilton","NE",1873,1889,,
"OVERTON","Dawson","NE",1873,,40.7386198,-99.5376053
"OVERTON","Rusk","TX",1873,,32.273577,-94.976882
"OX BOW","Nuckolls","NE",1873,1886,40.2822308,-97.9794853
"PACK SADDLE","Llano","TX",1873,1914,30.6532407,-98.4447515
"PAHREAH","Kane","UT",1873,1914,37.2483164,-111.9490693
"PALOUSE","Whitman","WA",1873,,46.9101688,-117.0757252
"PALUXY","Hood","TX",1873,,32.271576,-97.906087
"PAPER MILL","Salt Lake","UT",1873,1882,,
"PARADISE VALLEY","Latah","ID",1873,1876,46.7237765,-116.989609
"PARK CITY","Summit","UT",1873,,40.6438401,-111.4960283
"PATAHA PRAIRIE","Garfield","WA",1873,1876,,
"PATIT","Columbia","WA",1873,1880,46.3356996,-117.8593719
"PEACHTREE","Monterey","CA",1873,1909,,
"PECAN","Delta","TX",1873,1886,,
"PENNINGTON","Trinity","TX",1873,,31.187642,-95.235511
"PENRYN","Placer","CA",1873,,38.8521217,-121.1693926
"PERDIDO","Goliad","TX",1873,1890,,
"PETERS","Edwards","KS",1873,1874,37.9230724,-99.4098384
"PHOENIX MINE","Napa","CA",1873,1880,,
"PIERCEVILLE","Finney","KS",1873,1989,37.8783557,-100.676822
"PINE CREEK","Latah","ID",1873,1877,46.6296167,-116.5948745
"PINE CREEK","Nye","NV",1873,1881,38.7960422,-116.848413
"PINE GROVE","Douglas","CO",1873,1882,39.5277498,-104.8068238
"PINE TOP","Carbon","WY",1873,1873,,
"PIONEER","Clark","WA",1873,1905,45.6744798,-122.50198
"PIPE CREEK","Bandera","TX",1873,,29.723547,-98.9344208
"PITTSBURGH","Seward","NE",1873,1875,,
"PITTVILLE","Shasta","CA",1873,1961,41.0484975,-121.3344226
"PLAINFIELD","Yolo","CA",1873,1908,38.6421272,-121.8219091
"PLAINFIELD","York","NE",1873,1879,40.8855683,-97.7928302
"PLEASANT HILL","Osborne","KS",1873,1880,,
"PLEASANT HOME","Lincoln","SD",1873,1876,,
"PLEASANT VALLEY","Lincoln","KS",1873,1896,39.0013958,-98.2086656
"PLUMB CREEK","Phillips","KS",1873,1879,39.850458,-99.1896
"POINT OF ROCKS","Beaverhead","MT",1873,1873,,
"PONTIAC","Butler","KS",1873,1926,37.8175189,-96.7161353
"POWELL DALE","Bosque","TX",1873,1881,,
"POWELL'S VALLEY","Multnomah","OR",1873,1894,45.4865093,-122.3934237
"PRAIRIE POINT","Anderson","TX",1873,1882,,
"PRAIRIE STAR","Thayer","NE",1873,1887,40.336115,-97.5658775
"PUERTO DE LUNA","Guadalupe","NM",1873,1966,34.8320053,-104.6213767
"RAEMER CREEK","Marshall","KS",1873,1874,39.9022246,-96.6980776
"REAGAN","Falls","TX",1873,,31.217414,-96.783372
"REAMER CREEK","Marshall","KS",1873,1874,39.9022246,-96.6980776
"RED BUD","Cowley","KS",1873,1910,37.4500209,-97.0980949
"RED RIVER CITY","Grayson","TX",1873,1874,33.8028804,-96.5308252
"REDVILLE","Polk","NE",1873,1877,,
"REEDSVILLE","Marshall","KS",1873,1902,39.7691674,-96.5389047
"RENO CENTRE","Reno","KS",1873,1886,37.9672349,-98.0925584
"REYNOLDS","Cherokee","TX",1873,1907,,
"RISLEY","Marion","KS",1873,1879,38.3519556,-97.2044723
"ROCKDALE","Milam","TX",1873,,30.6568685,-97.0005308
"ROCKPORT","Rooks","KS",1873,1905,39.5508429,-99.3189867
"ROCKTON","Wabaunsee","KS",1873,1886,38.9166687,-96.1313819
"ROCKVILLE","Sherman","NE",1873,,41.118345,-98.8317472
"ROSE HILL","Saunders","NE",1873,1879,,
"ROSS CITY","Chautauqua","KS",1873,1875,,
"ROSWELL","Chaves","NM",1873,,33.3942655,-104.5230242
"ROUND SPRING","Mitchell","KS",1873,1880,39.2489219,-98.2559228
"ROUTIER STATION","Sacramento","CA",1873,1899,,
"RUBY HILL","Eureka","NV",1873,1901,39.5046509,-115.9861695
"RYADO","Colfax","NM",1873,1881,36.368647,-104.9269453
"SAINT JO","Montague","TX",1873,,33.6938471,-97.522202
"SAINT JOHNS","Multnomah","OR",1873,1912,45.5885671,-122.7539535
"SALLISAW","Adair","OK",1873,1888,,
"SALT CREEK","Montague","TX",1873,1884,33.8906552,-97.7839195
"SALT CREEK","Reno","KS",1873,1886,38.0583457,-98.1711722
"SALTVILLE","Mitchell","KS",1873,1901,39.2833388,-98.0989374
"SAMS VALLEY","Jackson","OR",1873,1953,42.4933333,-122.9358333
"SAN ANTONIA","Nye","NV",1873,1889,38.4610431,-117.2937005
"SAN FERNANDO","Los Angeles","CA",1873,,34.28286,-118.43742
"SAN JOSE","Las Animas","CO",1873,1878,37.0422445,-104.0474707
"SAN RAMOON","Contra Costa","CA",1873,1883,37.7752052,-121.9794042
"SAN SALVADOR","San Bernardino","CA",1873,1886,34.0555688,-117.3322663
"SANDY","Clackamas","OR",1873,,45.5423418,-122.357591
"SANTA CLARA","Huerfano","CO",1873,1894,37.4908475,-104.7116524
"SANTA ROSA","Guadalupe","NM",1873,1898,34.9422222,-104.6861111
"SAPPA","Decatur","KS",1873,1878,39.8183384,-100.528201
"SARGENT","Hamilton","KS",1873,1881,38.0416799,-102.0087927
"SATICOY","Ventura","CA",1873,1959,34.2830582,-119.1498291
"SAVOY","Fannin","TX",1873,,33.598807,-96.364924
"SCHWEDT","Stanton","NE",1873,1895,,
"SCOTIA","Greeley","NE",1873,,41.4664006,-98.7031344
"SCOTT","Webster","NE",1873,1904,,
"SEA","Houston","TX",1873,1876,,
"SEA SIDE","Santa Cruz","CA",1873,1881,37.0799481,-122.2466366
"SEASIDE HOUSE","Clatsop","OR",1873,1882,45.978997,-123.928194
"SEBERGER","Polk","NE",1873,1873,,
"SEHOME","Whatcom","WA",1873,1892,48.7273738,-122.4814067
"SHARON","Allen","KS",1873,1877,,
"SHEDDS","Linn","OR",1873,1915,44.4615118,-123.1103713
"SHELL ROCK","Greenwood","KS",1873,1883,,
"SHELL ROCK","Hood River","OR",1873,1878,45.6909505,-121.7820208
"SHELTON","Buffalo","NE",1873,,40.7791808,-98.7309078
"SHOCKLEY","Mitchell","KS",1873,1879,,
"SIEP SPRINGS","Comanche","TX",1873,1883,32.0906967,-98.7842219
"SILVER CREEK","Minnehaha","SD",1873,1876,43.5980304,-96.7314393
"SILVER LAKE","Adams","NE",1873,1887,40.4683476,-98.5581205
"SITKUM","Coos","OR",1873,1964,43.148168,-123.8612031
"SKAMOKOWA","Wahkiakum","WA",1873,,46.2696746,-123.4547297
"SKIN BAYOU","Sequoyah","OK",1873,1875,35.328705,-94.5704973
"SKUNK LAKE","Minnehaha","SD",1873,1881,43.72318,-96.868853
"SLACK CANYON","Monterey","CA",1873,1902,36.094407,-120.7007258
"SMITH CENTER","Smith","KS",1873,,39.7806179,-98.7744444
"SMITHVILLE","Clay","KS",1873,1874,,
"SMOKY HILL","McPherson","KS",1873,1894,38.5452852,-97.7775431
"SMYTH'S BLUFF","Jefferson","TX",1873,1876,29.9916024,-94.0023971
"SNOWSVILLE","Hamilton","TX",1873,1879,,
"SOUTH CANADIAN","Pittsburg","OK",1873,1899,35.1773202,-95.6552659
"SOUTH PLATTE","Weld","CO",1873,1883,,
"SPARTA","Bell","TX",1873,1920,31.0860121,-97.4761207
"SPRAGUE RIVER","Klamath","OR",1873,1883,42.4554215,-121.5041702
"SPRING","Harris","TX",1873,,30.0647708,-95.4310986
"SPRING GREEN","Furnas","NE",1873,1905,40.0341731,-99.9281801
"STILLWATER","Henderson","TX",1873,1880,,
"STOCKADE","Bent","CO",1873,1874,,
"STOCKVILLE","Frontier","NE",1873,,40.5327852,-100.3834757
"STOCKVILLE","Las Animas","CO",1873,1875,37.115298,-104.5241533
"STONE MOUND","Smith","KS",1873,1886,,
"STONEWALL","San Diego","CA",1873,1876,32.9828249,-116.5691854
"STOUGHTON","Clark","WA",1873,1881,,
"STRAUSS","Saunders","NE",1873,1873,,
"STRONGSTOWN","Crawford","KS",1873,1876,,
"STUBBLEFIELD","Stevens","WA",1873,1874,,
"SULPHUR SPRINGS","Park","CO",1873,1874,,
"SUMMIT","Grayson","TX",1873,1876,,
"SUMMIT PARK","El Paso","CO",1873,1892,38.9938808,-105.0569301
"SUN CITY","Barber","KS",1873,,37.3786333,-98.9159328
"SWEDEBURG","Saunders","NE",1873,1972,41.1361128,-96.6247422
"SYRACUSE","Hamilton","KS",1873,,37.9846701,-101.751801
"TABLE ROCK","El Paso","CO",1873,1893,39.1205471,-104.6733072
"TABOR","Clay","KS",1873,1887,39.4255517,-97.2855836
"TAYLOR'S CREEK","Lampasas","TX",1873,1878,31.0873958,-97.9880802
"TEHAMA","Cherokee","KS",1873,1901,37.6389341,-94.7599642
"TEMPLIN","Wabaunsee","KS",1873,1904,38.9161125,-96.4641668
"TENINO","Thurston","WA",1873,,46.8570441,-122.8495758
"TERRELL","Kaufman","TX",1873,,32.7198385,-96.2797721
"THE MEADOWS","Bent","CO",1873,1876,,
"THOMASTON","Dewitt","TX",1873,,,
"THOMPSON","Smith","KS",1873,1877,39.6055666,-98.7670195
"THORN CREEK","Latah","ID",1873,1879,46.5432183,-117.0690513
"THORNTON","Limestone","TX",1873,,31.4114239,-96.5725512
"TIPTON","Tulare","CA",1873,,36.0621751,-119.3098354
"TOLEDO","Fayette","TX",1873,1877,,
"TOWNSEND","Gage","NE",1873,1902,40.4075006,-96.6466883
"TREMONT","Washington","KS",1873,1873,,
"TROY","Nye","NV",1873,1913,38.3429951,-115.574474
"TROY","Saunders","NE",1873,1879,41.1941707,-96.7428032
"TRYSIL","Cass","ND",1873,1899,47.08719,-96.8234133
"TYGH VALLEY","Wasco","OR",1873,,45.247341,-121.17312
"ULTZVILLE","Bexar","TX",1873,1874,,
"UNIONTOWN","Bourbon","KS",1873,,37.8494155,-94.9723146
"VALLEY FORGE","Smith","KS",1873,1876,,
"VALLEY GRANGE","Red Willow","NE",1873,1884,,
"VAN ALSTYNE","Grayson","TX",1873,,33.4214995,-96.5772109
"VARNA","Saline","NE",1873,1887,,
"VERNON","Cowley","KS",1873,1876,,
"VICTORIA","Ellis","KS",1873,,38.8527896,-99.1475967
"VIEJAS","San Diego","CA",1873,1893,,
"VIENNA","Lavaca","TX",1873,1915,29.3783004,-96.7924779
"WACO","Sedgwick","KS",1873,1905,37.5208516,-97.3381008
"WALKER","Ellis","KS",1873,,38.8672339,-99.0759271
"WALKER","Platte","NE",1873,1874,,
"WALKERS PRAIRIE","Stevens","WA",1873,1896,47.9543343,-117.7749584
"WALLOWA","Wallowa","OR",1873,,45.5701445,-117.5282416
"WALNUT GROVE","Linn","KS",1873,1875,38.25808,-94.877186
"WALNUT STATION","Crawford","KS",1873,1877,37.6014373,-95.0780294
"WALNUT STATION","Travis","TX",1873,1874,,
"WARM SPRINGS","Jefferson","OR",1873,,44.7634519,-121.2661625
"WARRENTON","Fayette","TX",1873,1973,30.0174439,-96.7319212
"WASHINGTON CREEK","Douglas","KS",1873,1882,38.891948,-95.3255299
"WASHOE","Payette","ID",1873,1898,44.0543304,-116.9482156
"WAYLAND","Polk","NE",1873,1901,,
"WEBB'S LANDING","Contra Costa","CA",1873,1879,,
"WEIMAR","Colorado","TX",1873,,29.7024012,-96.7802328
"WEST BEND","Brookings","SD",1873,1873,,
"WEST LAS ANIMAS","Bent","CO",1873,1886,,
"WEST OAKLAND","Alameda","CA",1873,1878,37.8118721,-122.2949696
"WEST POINT","Fayette","TX",1873,,29.929996,-96.975262
"WESTFIELD","Harris","TX",1873,1972,29.8264,-95.7155
"WESTHOPE","Jewell","KS",1873,1879,39.589351,-97.987433
"WESTMINSTER","Reno","KS",1873,1881,37.9408469,-98.1703398
"WHITE WATER","Delaware","OK",1873,1886,36.503577,-94.73932
"WHITEHOUSE","Smith","TX",1873,,32.245286,-95.2323755
"WICKLOW","Lake","SD",1873,1893,,
"WILBER","Republic","KS",1873,1880,39.9986239,-97.9072651
"WILBER","Saline","NE",1873,,40.4813926,-96.9605841
"WILD TURKEY","Furnas","NE",1873,1873,40.1119506,-100.107078
"WILDWOOD","Rice","KS",1873,1881,,
"WILLAMETTE SLOUGH","Multnomah","OR",1873,1887,45.633727,-122.8220455
"WILLARD","York","NE",1873,1874,40.8664005,-97.5822731
"WILLIAM PENN","Washington","TX",1873,1916,30.3152102,-96.2821844
"WILLIAMSONS VALLEY","Yavapai","AZ",1873,1881,34.8039085,-112.879073
"WILLOW SPRING","Garfield","NE",1873,1892,41.7838956,-99.0948191
"WILLOW SPRINGS","Gregg","TX",1873,1879,,
"WILLOWDALE","Dickinson","KS",1873,1877,,
"WILSON","Ellsworth","KS",1873,,38.8209536,-98.4730662
"WILSONVILLE","Furnas","NE",1873,,40.1119506,-100.107078
"WITTER'S SPRINGS","Lake","CA",1873,1880,39.1798904,-122.9633311
"WOLF","Platte","NE",1873,1878,41.5986219,-97.6289384
"YALE","Ottawa","KS",1873,1887,,
"ZAHNVILLE","Cloud","KS",1873,1882,39.3483299,-97.4461408
"ZAVALA","Smith","TX",1873,1877,32.1446035,-95.1205003
"ZEDLAR'S MILL","Gonzales","TX",1873,1886,,
"ZURICH","Hall","NE",1873,1881,,
"ACEQUIA","Douglas","CO",1874,1900,39.5235994,-105.0280398
"AD HALL","Milam","TX",1874,1912,30.8474116,-97.0938793
"ADMAH","Washington","NE",1874,1901,41.6694381,-96.3961335
"AFTON","Frontier","NE",1874,1893,40.4233397,-100.1809695
"AFTON","Sedgwick","KS",1874,1886,37.6055711,-97.5933817
"AGENDA","Republic","KS",1874,,39.7077797,-97.4317035
"AKRON","Dickinson","KS",1874,1875,,
"ALAMO MILLS","Cass","TX",1874,1913,,
"ALCATRAZ","San Francisco","CA",1874,1963,37.8268723,-122.4227493
"ALCOLEA","Greenwood","KS",1874,1874,,
"ALDA","Hall","NE",1874,,40.8711238,-98.4681219
"ALEXANDER","Rush","KS",1874,,38.4689033,-99.5484474
"ALKALI","Bent","CO",1874,1875,,
"ALLEGAN","Rice","KS",1874,1900,38.4500104,-98.3114528
"ALLEN SPRINGS","Lake","CA",1874,1906,39.1596699,-122.6646874
"ALPINE","Chaffee","CO",1874,1904,38.7111077,-106.2769666
"ALPINE","Fillmore","NE",1874,1881,,
"ALPOWA","Garfield","WA",1874,1923,46.4337681,-117.3210044
"ALSEN","Union","SD",1874,1906,42.961104,-96.8055984
"ALVORD","Harney","OR",1874,1881,42.4182255,-118.5937935
"APPLETON","Butler","NE",1874,1880,41.2925114,-97.0425344
"ARBORVILLE","York","NE",1874,1943,41.0227923,-97.7744996
"ARCADIA","Mason","WA",1874,1918,47.1978735,-122.9395886
"ARCADIA","Valley","NE",1874,,41.4233426,-99.126204
"ARGYLE","Sumner","KS",1874,1881,,
"ARMSTRONG","Wyandotte","KS",1874,1888,,
"ASH CREEK","Hill","TX",1874,1883,31.9426571,-96.7663814
"ATLANTA","Cass","TX",1874,,33.1174474,-94.1640335
"ATLANTA","Rice","KS",1874,1877,38.3450104,-98.2017268
"AUDUBON","Wise","TX",1874,1904,,
"AZUSA","Los Angeles","CA",1874,,34.1313889,-117.9083333
"BACHELOR","McPherson","KS",1874,1876,38.3758421,-97.8350472
"BACKBONE VALLEY","Burnet","TX",1874,1877,30.6371307,-98.3172473
"BAILEYVILLE","Milam","TX",1874,1924,31.0526845,-96.8285926
"BALL KNOB","Hood","TX",1874,1881,,
"BARELA","Las Animas","CO",1874,1931,37.1155757,-104.2616459
"BARRACKS","Valley","NE",1874,1875,,
"BARRY","Greenwood","KS",1874,1903,,
"BARTGESTOWN","Rice","KS",1874,1887,38.5069538,-98.0711647
"BATTLE MOUNTAIN","Lander","NV",1874,,40.6126888,-117.056493
"BAZETTE","Navarro","TX",1874,1906,32.1834833,-96.2721993
"BAZINE","Ness","KS",1874,,38.4444594,-99.692063
"BEAVER CANON","Clark","ID",1874,1874,,
"BELFIELD","Rush","KS",1874,1887,38.4644573,-99.0467625
"BELKNAP","Young","TX",1874,1908,33.152335,-98.7331174
"BELLEVILLE","Mineral","NV",1874,1918,38.219094,-118.179841
"BENCHLEY","Brazos","TX",1874,1877,,
"BERNHARDSVILLE","Guadalupe","TX",1874,1875,,
"BEULAH","Crawford","KS",1874,1955,37.4403286,-94.8282975
"BIEGEL","Fayette","TX",1874,1905,,
"BLAINE","Pottawat","KS",1874,1985,,
"BLOOMINGTON","Osborne","KS",1874,1955,39.4516773,-98.7870213
"BLUE","Bryan","OK",1874,1972,33.9964854,-96.229987
"BLYVILLE","Knox","NE",1874,1998,,
"BONE SPRINGS","Reno","KS",1874,1902,37.8236261,-98.2003423
"BONN","Gage","NE",1874,1881,,
"BORDEN","Colorado","TX",1874,1905,29.6913451,-96.70192
"BOREN'S MILLS","San Augustine","TX",1874,1889,,
"BOSTON MILLS","Cherokee","KS",1874,1893,37.1158942,-94.6682845
"BOW CREEK","Phillips","KS",1874,1905,39.568621,-99.2739848
"BRADLEY SPRINGS","Ellsworth","KS",1874,1883,38.5513981,-98.1169994
"BRADSHAW","Yavapai","AZ",1874,1884,,
"BRINTON","Salt Lake","UT",1874,1907,,
"BRITTSVILLE","Mitchell","KS",1874,1882,39.3852814,-97.931432
"BROOKFIELD","Wahkiakum","WA",1874,1954,46.2648312,-123.5606915
"BROWN'S  BLUFF","Gregg","TX",1874,1875,,
"BROWNSVILLE","Cherokee","KS",1874,1879,,
"BRULE CITY","Brule","SD",1874,1882,,
"BRUTON","Wood","TX",1874,1878,,
"BUCKEYE","Hamilton","NE",1874,1884,,
"BUCKHORN","Austin","TX",1874,1909,30.0385546,-96.1999618
"BUCKNER","Fayette","TX",1874,1879,,
"BUFFALO","Weld","CO",1874,1883,40.4824824,-103.3513279
"BULLIONVILLE","Lincoln","NV",1874,1898,37.8032976,-114.4069343
"BURNT PINE","Beaverhead","MT",1874,1882,45.647148,-112.9064227
"BUSHBURY","Cass","NE",1874,1886,,
"BUTLERVILLE","Salt Lake","UT",1874,1902,40.6196702,-111.8102104
"CACTUS","Norton","KS",1874,1903,39.756118,-99.668723
"CAMP HARNEY","Harney","OR",1874,1885,43.6432092,-118.8227102
"CANBY","Modoc","CA",1874,,41.4437793,-120.8702442
"CANBY","Red Willow","NE",1874,1875,,
"CANTON","McPherson","KS",1874,,38.3861194,-97.4280895
"CARBON","Jackson","KS",1874,1880,39.4769412,-95.598313
"CARLTON","Yamhill","OR",1874,,45.2942822,-123.1764949
"CARROLL","Fergus","MT",1874,1882,47.5736056,-108.373465
"CASPAR","Mendocino","CA",1874,1964,39.3629495,-123.813071
"CASTLE ROCK","Douglas","CO",1874,,39.3648395,-104.8596738
"CAVE SPRING","Butler","KS",1874,1878,,
"CEDAR","Rooks","KS",1874,1874,,
"CEDAR HILL","Saunders","NE",1874,1888,,
"CEDAR MILL","Washington","OR",1874,1904,45.5259737,-122.8086279
"CEDAR VALLEY","Hamilton","NE",1874,1880,,
"CENTRAL","Colusa","CA",1874,1876,39.0379499,-122.4288663
"CENTRALIA","Trinity","TX",1874,,31.2589703,-95.0398759
"CENTRE","Tooele","UT",1874,1913,40.250223,-112.4007847
"CENTRE  MILL","Hood","TX",1874,1912,32.5540243,-97.7644738
"CENTRE MOUND","Republic","KS",1874,1880,39.9994552,-97.7683758
"CHEHALIS","Lewis","WA",1874,,46.6414928,-122.9415157
"CHEROKEE TOWN","Garvin","OK",1874,1877,,
"CHICO","Park","MT",1874,1919,45.3210479,-110.7052121
"CHIMNEY ROCK","Platte","WY",1874,1880,42.1713588,-105.2633152
"CHOCTAW","Grayson","TX",1874,1908,,
"CHRISTINE","Mendocino","CA",1874,1912,,
"CIRCLE VALLEY","Piute","UT",1874,1877,38.1949791,-112.2196471
"CLAREMORE","Rogers","OK",1874,,36.3277417,-95.6009967
"CLARENCE","Barton","KS",1874,1887,38.3902908,-98.9964838
"CLARK","Burt","NE",1874,1880,,
"CLATONIA","Gage","NE",1874,,40.4652804,-96.8497484
"CLAYTON","Panola","TX",1874,,32.097965,-94.475845
"CLEAR CREEK","Galveston","TX",1874,1902,29.5248835,-95.0729093
"CLEVELAND","Douglas","OR",1874,1923,43.2962262,-123.4764705
"CLIFTON","Clatsop","OR",1874,1956,46.2109435,-123.4623528
"CLOVERTON","Webster","NE",1874,1887,40.2989026,-98.5381188
"CLYDE","Antelope","NE",1874,1876,,
"COBB","Wabaunsee","KS",1874,1877,,
"COLUMBIA","Tooele","UT",1874,1876,,
"COOKE'S POINT","Burleson","TX",1874,1913,30.5960343,-96.6096932
"CORNHILL","Butler","KS",1874,1876,,
"CORONA","Morgan","CO",1874,1896,40.2305363,-104.0727278
"COTTAGE HILL","Gage","NE",1874,1883,,
"COURSEN'S GROVE","Mitchell","KS",1874,1895,39.2766704,-97.9689326
"COYOTE","Phillips","KS",1874,1875,,
"COZAD","Dawson","NE",1874,,40.8597294,-99.9873442
"CROSS CREEK","Tulare","CA",1874,1876,36.3141169,-119.6012383
"CROW","Lane","OR",1874,1938,44.05429,-123.2992612
"CROWDER","Saunders","NE",1874,1879,41.1336179,-96.8708594
"CURDS PRAIRIE","Brazos","TX",1874,1876,,
"CYCLONE","Polk","NE",1874,1880,41.1922363,-97.4253245
"CYPRESS MILL","Blanco","TX",1874,1958,30.3810304,-98.2505739
"DAILY BRANCH","Dixon","NE",1874,1895,42.5708319,-96.9392099
"DANA","York","NE",1874,1888,,
"DANNEBROG","Howard","NE",1874,,41.1183456,-98.5459042
"DAVENPORT","Santa Cruz","CA",1874,,37.024394,-122.2158028
"DAVIESVILLE","Gosper","NE",1874,1887,,
"DE BERRY","Panola","TX",1874,,32.303854,-94.165368
"DE WITT","Washington","KS",1874,1894,39.7750028,-97.2380884
"DEANVILLE","Smith","TX",1874,1874,,
"DECATUR","Decatur","KS",1874,1900,39.9083387,-100.3665312
"DECKMAN","Dallas","TX",1874,1877,,
"DEFIANCE","Woodson","KS",1874,1886,37.8789255,-95.6472058
"DELANO","Kern","CA",1874,,35.7763425,-119.2403866
"DEMPSEY","Cass","TX",1874,1901,,
"DEVER'S WOODS","Liberty","TX",1874,1892,30.0049376,-94.5724168
"DEVIZES","Norton","KS",1874,1926,39.9911169,-100.0573529
"DIAMOND","Eureka","NV",1874,1884,39.7377053,-115.8608883
"DICKEYVILLE","Phillips","KS",1874,1895,39.8444541,-99.4045443
"DIDO","Tarrant","TX",1874,1895,,
"DISCORD","Brown","KS",1874,1881,39.756666,-95.7294299
"DIVIDE","Chaffee","CO",1874,1885,,
"DIXON","Carbon","WY",1874,,41.0332981,-107.5356211
"DOBY RANCH","Sacramento","CA",1874,1876,,
"DOBYVILLE","Burnet","TX",1874,1889,30.9307321,-98.2394728
"DODGEVILLE","Sonoma","CA",1874,1874,,
"DONAHUE","Sonoma","CA",1874,1875,38.189362,-122.5419261
"DORA","Coos","OR",1874,1939,43.1559448,-123.9562078
"DOUGLAS","Douglas","CO",1874,1884,,
"DRIFT CREEK","Lincoln","OR",1874,1876,44.4128979,-123.9956722
"DRY CREEK","Elko","NV",1874,1879,40.4424293,-115.6192234
"DRY CREEK","Gallatin","MT",1874,1874,45.874373,-111.2182882
"DUBLIN","Boone","NE",1874,1903,41.6230681,-98.2381225
"DUNBAR","Otoe","NE",1874,,40.6680577,-96.0300068
"DUNLAP","Morris","KS",1874,1988,38.5763988,-96.3658336
"DUNNEVILLE","San Benito","CA",1874,1875,36.9405058,-121.4104904
"DURHAM PARK","Marion","KS",1874,1887,38.5016753,-97.2436364
"DUTCH HILL","Plumas","CA",1874,1877,40.1190546,-121.1035716
"EARL","Cherokee","TX",1874,1874,,
"EAST BERNARD","Wharton","TX",1874,,29.5292898,-96.0659092
"EAST HAMILTON","Shelby","TX",1874,1926,31.5960101,-93.8418535
"EATON","Kearney","NE",1874,1879,40.5614035,-98.8006313
"ECHO","Douglas","KS",1874,1900,38.8111164,-95.3521975
"ECKLEY","Webster","NE",1874,1879,40.2058461,-98.3583863
"ELK","Chase","KS",1874,1924,38.414053,-96.784727
"ELKDALE","Merrick","NE",1874,1874,,
"ELKHART","Anderson","TX",1874,,31.6261166,-95.5799125
"ELM CREEK","Marshall","KS",1874,1893,39.7472232,-96.6097395
"ELM GROVE","Caldwell","TX",1874,1890,29.8907789,-97.4874953
"ELM RIVER","Traill","ND",1874,1880,47.2685958,-97.4159217
"EMVILLE","Phillips","KS",1874,1875,,
"ERIE","San Benito","CA",1874,1892,,
"ESBON","Jewell","KS",1874,,39.8244567,-98.4361699
"EUFAULA","McIntosh","OK",1874,,35.2884446,-95.6089112
"EXCELSIOR","Mitchell","KS",1874,1888,39.3933426,-98.3586694
"FAIR POINT","Rice","KS",1874,1880,38.3980652,-98.0119966
"FARMERS","Lincoln","SD",1874,1881,,
"FAVOR","Cherokee","KS",1874,1876,,
"FERRIS","Ellis","TX",1874,,32.534043,-96.668992
"FIELDS STORE","Waller","TX",1874,1909,30.1446601,-95.956066
"FIVE MILE","Dallas","TX",1874,1874,32.7065208,-96.8830587
"FLINT RIDGE","Greenwood","KS",1874,1921,37.942521,-96.5091792
"FLOAT","Pottawat","KS",1874,1876,,
"FORD","Holt","NE",1874,1884,42.2577833,-98.3464655
"FORT BASCOM","San Miguel","NM",1874,1892,,
"FORT BERTHOLD","McLean","ND",1874,1906,47.5125023,-101.8132264
"FORT MILLER","Fresno","CA",1874,1876,36.7855045,-119.7951458
"FORT WINGATE","McKinley","NM",1874,,35.4678017,-108.5411898
"FOUR LAKES","Spokane","WA",1874,,47.5612777,-117.5941009
"FOURTH PLAIN","Clark","WA",1874,1875,45.6970616,-122.5298179
"FOX VALLEY","Linn","OR",1874,1907,44.7595663,-122.5517511
"FREDERICKSBURGH","Phillips","KS",1874,1883,,
"FREEDOM","Butler","KS",1874,1900,,
"FREEL'S RANCH","Laramie","WY",1874,1875,,
"FRENCH SETTLEMENT","Douglas","OR",1874,1874,43.2628929,-123.4509121
"FRENCH VALLEY","Wabaunsee","KS",1874,1883,,
"FRESHWATER","Colusa","CA",1874,1877,,
"FRIEND","Saline","NE",1874,,40.6536172,-97.2861572
"FRUITLAND","Cherokee","KS",1874,1876,,
"GAGE VALLEY","Howard","NE",1874,1883,,
"GALES CREEK","Washington","OR",1874,1959,45.5865011,-123.2148334
"GALLINAS SPRINGS","San Miguel","NM",1874,1906,,
"GARBER","Harlan","NE",1874,1878,,
"GARBERVILLE","Humboldt","CA",1874,,40.1001449,-123.795029
"GARY","Deuel","SD",1874,,44.792884,-96.456866
"GATE CREEK","Lane","OR",1874,1897,44.1456825,-122.5914605
"GAUSE","Milam","TX",1874,,30.7860903,-96.7212405
"GAZELLE","Fillmore","NE",1874,1884,,
"GENARO","Madison","NE",1874,1876,,
"GENESEO","Minnehaha","SD",1874,1879,,
"GENTILE VALLEY","Franklin","ID",1874,1900,,
"GERMANTOWN","Seward","NE",1874,1919,40.9447297,-96.9850262
"GEYSER SPRINGS","Sonoma","CA",1874,1887,38.7749061,-122.7552692
"GILEAD","Thayer","NE",1874,,40.1463919,-97.4130963
"GILMAN","Jefferson","CO",1874,1876,,
"GLEN ROSE","Somervell","TX",1874,,32.238786,-97.754034
"GLEN SHARRALD","Rice","KS",1874,1887,38.4641778,-98.4792381
"GLENNVILLE","Kern","CA",1874,,35.7288416,-118.7036997
"GLENORA","Jewell","KS",1874,1878,,
"GOODE","Phillips","KS",1874,1904,39.9227875,-99.4601021
"GOSHEN","Lane","OR",1874,1957,43.9954031,-123.0114722
"GRAFT","Harlan","NE",1874,1886,,
"GRAND SALINE","Van Zandt","TX",1874,,32.6737,-95.7082485
"GRANGEVILLE","Kings","CA",1874,1920,36.3435612,-119.7087425
"GRANITE HILL","El Dorado","CA",1874,1908,,
"GRASS RIDGE","Linn","OR",1874,1876,44.424013,-122.8006418
"GRAVELLY VALLEY","Lake","CA",1874,1889,39.4498819,-122.9563899
"GRAYSON","Stanislaus","CA",1874,1906,37.5449317,-121.1988257
"GREEN VALLEY","Denton","TX",1874,1881,33.3134499,-97.0641767
"GREENBUSH","Crawford","KS",1874,1901,37.5144947,-94.9880257
"GREENWICH","Sedgwick","KS",1874,,37.7827911,-97.2036525
"GREGORY","Cherokee","KS",1874,1874,,
"GROGAN","San Benito","CA",1874,1874,,
"GROVELAND","McPherson","KS",1874,1939,38.2930644,-97.72949
"HALL VALLEY","Park","CO",1874,1894,39.4605429,-105.7358407
"HAMBURGH","Van Zandt","TX",1874,1881,,
"HAMILTON","Hamilton","NE",1874,1876,,
"HARRIS RANCH","Linn","OR",1874,1875,44.4940121,-122.8253658
"HARSHBARGER","Lincoln","KS",1874,1876,,
"HARWOOD","Gonzales","TX",1874,,29.6665027,-97.5041283
"HAWK SPRINGS","Goshen","WY",1874,,41.786082,-104.2646783
"HAWKINSVILLE","Matagorda","TX",1874,1907,28.8877547,-95.6696748
"HAYDEN","Park","MT",1874,1883,45.4771578,-110.7021565
"HERMAN","Lake","SD",1874,1881,,
"HERMAN","Lincoln","KS",1874,1893,39.1402848,-98.2294991
"HIAWATHA","Butler","NE",1874,1878,,
"HILLSBOROUGH","Morris","KS",1874,1874,38.5763988,-96.3658336
"HILLSDALE","Moody","SD",1874,1884,43.9630275,-96.6717151
"HODSON","Phelps","NE",1874,1875,,
"HOGGARTS","Cass","ND",1874,1883,,
"HOLLADAYBURGH","Salt Lake","UT",1874,1874,,
"HOLLAND","Park","CO",1874,1874,39.248601,-106.053352
"HOLLYROOD","Ellsworth","KS",1874,1898,38.5869549,-98.4111777
"HOME","Marshall","KS",1874,,39.8416678,-96.5197389
"HOMER","Dakota","NE",1874,,42.3216611,-96.4894782
"HORNSDALE","Saline","NE",1874,1875,,
"HOT SULPHUR SPRINGS","Grand","CO",1874,,40.073797,-106.1066557
"HOWARDSVILLE","San Juan","CO",1874,1939,37.8355524,-107.5942267
"HUENEME","Ventura","CA",1874,1940,34.1597273,-119.1820514
"HUMPHREY","Hunt","TX",1874,1906,,
"HYNESVILLE","Refugio","TX",1874,1875,,
"INDIANOLA","Butler","KS",1874,1902,37.738349,-97.0761499
"IONATA","Santa Barbara","CA",1874,1876,,
"IOWA BAR","Bonneville","ID",1874,1883,43.1029743,-111.2646648
"IOWAVILLE","Sedgwick","KS",1874,1902,37.5769621,-97.1828197
"JEDDO","Bastrop","TX",1874,1927,29.8088382,-97.3147133
"JEFFERSON","Nye","NV",1874,1886,38.713265,-116.9825823
"JEWELL","Clatsop","OR",1874,1964,45.9294444,-123.4977778
"JONESO","Tulare","CA",1874,1879,,
"JOPPA","Washington","OR",1874,1876,45.5953899,-123.2167781
"JORDAN","Linn","OR",1874,1905,44.7270667,-122.6998089
"JUDSON","Gosper","NE",1874,1876,,
"JUDSON","Smith","KS",1874,1901,39.9814025,-98.6358997
"JUNCTION","Lemhi","ID",1874,1919,44.7007565,-113.3705924
"KALAMAZOO","Madison","NE",1874,1904,41.8291743,-97.6403307
"KEENAN CITY","Bonneville","ID",1874,1875,43.1407517,-111.3402226
"KEENE","Kearney","NE",1874,1945,40.4252909,-99.0659199
"KEMMA","Knox","NE",1874,1894,42.5438921,-97.8106218
"KENNEBEC","Russell","KS",1874,1891,38.7686226,-98.8559179
"KESTER","Park","CO",1874,1891,,
"KIBESILLAH","Mendocino","CA",1874,1889,39.5901611,-123.7777947
"KILDARE","Cass","TX",1874,,32.9439233,-94.2491751
"KINSLEY","Edwards","KS",1874,,37.9212027,-99.4132597
"KIOWA","Barber","KS",1874,1886,37.0172493,-98.4853539
"KIRKSVILLE","Sutter","CA",1874,1878,38.9087867,-121.7927445
"LA BREA","Santa Clara","CA",1874,1876,36.9171742,-121.5571642
"LA GARITA","Saguache","CO",1874,1972,37.8408348,-106.2466966
"LACLEDE","Pottawat","KS",1874,1906,,
"LAGARTO","Live Oak","TX",1874,1940,28.1194548,-97.9555567
"LAKEVIEW","Lake","OR",1874,,42.1887721,-120.345792
"LAKEVIEW","Pierce","WA",1874,1963,47.1615,-122.499
"LAKIN","Kearny","KS",1874,,37.9403239,-101.2639966
"LASSEN","Lassen","CA",1874,1875,40.4162841,-120.656062
"LAST CHANCE","Albany","WY",1874,1878,,
"LAURIN","Madison","MT",1874,1972,45.3527023,-112.1180437
"LEDBETTER","Fayette","TX",1874,,30.1489862,-96.7930213
"LEESBURG","Camp","TX",1874,,32.989596,-95.084578
"LEESVILLE","Colusa","CA",1874,1920,39.1893342,-122.4235921
"LEESVILLE","Gonzales","TX",1874,,29.408573,-97.745182
"LENORA","Norton","KS",1874,,39.61056,-100.0026272
"LEOTA","Norton","KS",1874,1881,,
"LESLIE","Reno","KS",1874,1887,38.1488992,-97.8456052
"LIGHTVILLE","Mason","WA",1874,1875,,
"LILLY","McPherson","KS",1874,1879,,
"LIMA","Elk","KS",1874,1887,37.4903136,-96.1836023
"LINDALE","Smith","TX",1874,,32.510656,-95.410201
"LINDEN","Hamilton","NE",1874,1875,40.7739007,-98.1536672
"LINDSAY","Platte","NE",1874,,41.7000097,-97.6939411
"LITTLE BEND","Sully","SD",1874,1911,44.777205,-100.7115344
"LITTLE FALLS","Lewis","WA",1874,1913,46.4103855,-122.9878976
"LIVE OAK","Sutter","CA",1874,,39.2757232,-121.6599701
"LOCKWOOD","Merrick","NE",1874,1890,40.9700122,-98.2445039
"LOGAN VALLEY","Cedar","NE",1874,1881,42.5111107,-97.1058823
"LONE TREE","Bon Homme","SD",1874,1879,,
"LONG DEN","Franklin","NE",1874,1879,,
"LONG HOPE","York","NE",1874,1883,,
"LOONEYVILLE","Nacogdoches","TX",1874,1905,31.763231,-94.8443811
"LOST LAKE","Turner","SD",1874,1887,43.4722055,-97.3845076
"LOWDEN'S RANCH","Trinity","CA",1874,1908,40.6901457,-122.8561347
"LOYAL HILL","Lancaster","NE",1874,1888,,
"LULING","Caldwell","TX",1874,,29.679916,-97.649274
"LUMMI","Whatcom","WA",1874,1894,48.728933,-122.6542708
"LYNCH'S CREEK","Lampasas","TX",1874,1883,31.113781,-98.4103126
"LYON'S STATION","Los Angeles","CA",1874,1875,,
"MACHADO","Los Angeles","CA",1874,1887,33.9844559,-118.4470227
"MACY","Brazos","TX",1874,1905,,
"MADISON","Lake","SD",1874,,44.015812,-97.103348
"MADISON","Union","NM",1874,1888,36.8808571,-103.8735755
"MAHERVILLE","Barton","KS",1874,1904,38.5222341,-98.8481424
"MALCOLM","Lancaster","NE",1874,,40.9066713,-96.8627994
"MANCHAC","Travis","TX",1874,1875,30.141064,-97.827583
"MANLEYVILLE","Fillmore","NE",1874,1875,,
"MANUEL RANCH","Idaho","ID",1874,1878,,
"MAPLE GROVE","Pottawat","KS",1874,1880,,
"MARIETTA","Saline","KS",1874,1874,,
"MARION","Franklin","NE",1874,1879,,
"MARSHALL","Moody","SD",1874,1880,,
"MARYSTOWN","Johnson","TX",1874,1901,32.4598627,-97.3200155
"MAXWELL","Hutchinson","SD",1874,1882,43.240623,-97.674776
"MCFARLAND","Lancaster","NE",1874,1878,,
"MCGUE SPRINGS","Eastland","TX",1874,1876,,
"McKINZIE BRIDGE","Lane","OR",1874,1918,44.1751238,-122.1639473
"MEADOWVILLE","Rich","UT",1874,1902,41.8441025,-111.3990952
"MEDANO SPRINGS","Costilla","CO",1874,1879,,
"MELROSE","Harlan","NE",1874,1878,40.129177,-99.4553802
"MERCURYVILLE","Sonoma","CA",1874,1879,38.7760177,-122.8219381
"MERRIMAN","Eastland","TX",1874,1885,32.422909,-98.6981145
"MESQUITE","Dallas","TX",1874,,32.7751364,-96.5981066
"METZ","Chautauqua","KS",1874,1888,37.1686748,-95.9822077
"MIDDLETON","Turner","SD",1874,1883,,
"MIDWAY","Morrow","OR",1874,1881,45.2581886,-119.659467
"MILANO","Milam","TX",1874,,30.707688,-96.866649
"MILLERBOROUGH","Knox","NE",1874,1904,,
"MILLVILLE","Lancaster","NE",1874,1876,,
"MILTON","Lamar","TX",1874,1907,33.5148307,-95.3743958
"MINERSVILLE","Otoe","NE",1874,1923,40.5969459,-95.7891651
"MINERVA","Labette","KS",1874,1892,37.1061811,-95.2849691
"MIRAMICHI","Hamilton","NE",1874,1877,,
"MODENA","Butler","KS",1874,1882,,
"MODOC","Boulder","CO",1874,1879,40.103874,-105.1708193
"MONITOR","McPherson","KS",1874,1902,38.3330645,-97.8164362
"MONROE","Benton","OR",1874,,44.3183333,-123.2975
"MONTSERRAT","San Diego","CA",1874,1876,,
"MONUMENT","Grant","OR",1874,,44.8208333,-119.4197222
"MOORES' LANDING","Bowie","TX",1874,1874,,
"MOUNT AYR","Osborne","KS",1874,1895,39.3708438,-98.9714742
"MOUNT PLEASANT","Linn","OR",1874,1887,44.7515112,-122.7300872
"MOUNTAIN HOUSE","Sierra","CA",1874,1911,39.5001727,-120.8916156
"MUDDY STATION","Linn","OR",1874,1875,44.3095679,-123.1289806
"MURVAUL","Panola","TX",1874,1918,32.0659979,-94.3751999
"NAVARRO MILLS","Navarro","TX",1874,1891,31.9579346,-96.6822121
"NEAH BAY","Clallam","WA",1874,,48.3681223,-124.6249602
"NECHANITZ","Fayette","TX",1874,1954,30.0457762,-96.8269236
"NEDERLAND","Boulder","CO",1874,,39.9613759,-105.5108312
"NEILSBURGH","Republic","KS",1874,1879,,
"NELSON","Nuckolls","NE",1874,,40.2016771,-98.0678201
"NESS","Ness","KS",1874,1881,,
"NETHERLAND","Reno","KS",1874,1884,37.7764051,-98.2825688
"NEW MEMPHIS","Cherokee","KS",1874,1876,37.2520046,-94.9685738
"NEW TACOMA","Pierce","WA",1874,1884,47.2014868,-122.5598485
"NEWBERN","Linn","OR",1874,1874,44.5898449,-122.9764799
"NEWMAN GROVE","Madison","NE",1874,,41.7500096,-97.7753327
"NEWPORT","Dawson","NE",1874,1875,,
"NORDHOFF","Ventura","CA",1874,1917,34.4474939,-119.2456669
"NORTH BUTTE","Sutter","CA",1874,1875,39.292389,-121.8077508
"NORTH TULE","Tulare","CA",1874,1874,,
"NORTONVILLE","Contra Costa","CA",1874,1910,37.9577004,-121.8805132
"NUREY","Lincoln","SD",1874,1900,43.1388753,-96.6711526
"OAK","Nuckolls","NE",1874,,40.2369518,-97.9033736
"OAK ARBOR","Butte","CA",1874,1875,,
"OAK BAR","Siskiyou","CA",1874,1928,41.837355,-122.9386477
"OAK CITY","Millard","UT",1874,,39.3749562,-112.3354978
"OAK GROVE","Pottawat","KS",1874,1882,,
"OAKDALE","Union","SD",1874,1880,,
"OAKWOOD","Brookings","SD",1874,1894,44.4399675,-96.9567279
"OGBURN","Smith","TX",1874,1874,,
"OLEX","Gilliam","OR",1874,1959,45.4970745,-120.168927
"OLNEY","Rush","KS",1874,1888,38.4875131,-99.1781555
"ORCHARD","Hall","NE",1874,1879,40.7719572,-98.3695069
"OWENSBURG","Whitman","WA",1874,1876,,
"OXFORD","Boone","NE",1874,1881,,
"PAICINES","San Benito","CA",1874,,36.7285708,-121.2788188
"PAIGE","Bastrop","TX",1874,,30.2113109,-97.114237
"PAINT CREEK","Bourbon","KS",1874,1884,37.8028194,-94.8149661
"PALMER","Ellis","TX",1874,,32.433186,-96.662254
"PANAMA","Kern","CA",1874,1876,35.266906,-119.0567707
"PANAMINT","Inyo","CA",1874,1895,36.1182827,-117.0953327
"PARK HILL","Dixon","NE",1874,1881,,
"PARKERSVILLE","Baker","OR",1874,1876,44.6893195,-118.4224444
"PATRON","Butler","NE",1874,1880,41.3427903,-97.2383727
"PAYNES STORE","Hunt","TX",1874,1894,,
"PEAK","Washington","OR",1874,1876,45.5359464,-123.1687204
"PECAN GROVE","Coryell","TX",1874,1905,31.395167,-97.5952956
"PENASCO","Taos","NM",1874,,36.1694698,-105.686404
"PENNINGTON","Minnehaha","SD",1874,1901,43.710807,-96.6525481
"PHILLIPSBURGH","Robertson","TX",1874,1874,,
"PIGEON POINT","San Mateo","CA",1874,1875,37.1818905,-122.3946971
"PINE GROVE","Butler","KS",1874,1895,37.5486306,-96.8439201
"PINEFLAT","Sonoma","CA",1874,1932,38.7393518,-122.7638806
"PINK HILL","Grayson","TX",1874,1894,,
"PIPE CREEK","Ottawa","KS",1874,1898,39.1216672,-97.7125363
"PISHELVILLE","Knox","NE",1874,1927,42.7269442,-98.2122994
"PLAINVIEW","Pierce","NE",1874,,42.3497266,-97.7920091
"PLEASANT MOUND","Bon Homme","SD",1874,1876,,
"PLEASANT RIDGE","Latimer","OK",1874,1875,,
"PLEASANT VALLEY","Clark","ID",1874,1881,44.457135,-112.2183284
"PLEASANT VALLEY","Minnehaha","SD",1874,1878,,
"POEVILLE","Washoe","NV",1874,1878,39.5849095,-119.9032514
"POLO","Cowley","KS",1874,1885,37.4472435,-96.8422539
"PONCA","Dixon","NE",1874,,42.5624971,-96.7055918
"POP CORN","Osage","KS",1874,1890,38.7236175,-95.7377626
"PORT LANDIS","Norton","KS",1874,1879,39.6272279,-99.8226191
"POST OAK GROVE","Chickasaw Nation","OK",1874,1878,,
"POTTERVILLE","Osborne","KS",1874,1903,39.23501,-98.6209041
"PRAIRIE CENTRE","Buffalo","NE",1874,1893,40.8589008,-99.0550873
"PRATTVILLE","Plumas","CA",1874,1914,40.208775,-121.1566291
"PRATTVILLE","Sevier","UT",1874,1877,38.7741339,-112.0146481
"PRETTY PRAIRIE","Reno","KS",1874,,37.7777947,-98.7745368
"PROCTER","Comanche","TX",1874,1881,31.9890653,-98.4333964
"PROSPER","Ellsworth","KS",1874,1887,,
"PULASKI","Las Animas","CO",1874,1886,,
"PUYALLUP","Pierce","WA",1874,,47.1908,-122.2951
"QUARTZBURGH","Boise","ID",1874,1894,43.9610043,-115.9884507
"QUINAN","Wharton","TX",1874,1883,,
"RANCH","Kane","UT",1874,1912,,
"RANDALIA","Walker","TX",1874,1876,,
"RED BLUFF","Madison","MT",1874,1901,45.5885392,-111.6480285
"REDWING","Moody","SD",1874,1875,,
"RESCUE","Saunders","NE",1874,1933,41.3444513,-96.8697529
"RICHARDSON","Dallas","TX",1874,,32.9578974,-96.7330152
"RIO GRANDE","Costilla","CO",1874,1877,,
"RIPON","San Joaquin","CA",1874,,37.741595,-121.1243828
"RIVER BEND","Palo Pinto","TX",1874,1874,,
"RIVER VIEW","Rice","KS",1874,1880,,
"RIVERSIDE","Columbia","OR",1874,1888,46.00499,-123.282
"ROARING RIVER","Shasta","CA",1874,1877,40.3976513,-122.5286225
"ROCHESTER","McCook","SD",1874,1879,,
"ROCK CLIFF","Saguache","CO",1874,1880,,
"ROCK FALLS","Phelps","NE",1874,1894,,
"ROCKFORD","Holt","NE",1874,1877,42.4591699,-98.6481429
"ROCKTON","Furnas","NE",1874,1887,40.0455618,-99.9770715
"ROCKY","Park","CO",1874,1898,38.9855556,-105.4197222
"RODGERS STATION","Atoka","OK",1874,1877,,
"ROGERS PRAIRIE","Leon","TX",1874,1906,31.0421307,-96.0919025
"ROHNERVILLE","Humboldt","CA",1874,1959,40.5670768,-124.135607
"ROME","Sumner","KS",1874,1933,37.1614153,-97.1428179
"ROSE HILL","Butler","KS",1874,,37.5583517,-97.1350405
"ROSEDALE","Hanson","SD",1874,1883,43.6249548,-97.8760386
"ROSITA","Custer","CO",1874,1967,38.0972238,-105.33611
"ROUND VALLEY","Inyo","CA",1874,1919,37.4188203,-118.5878968
"ROWLAND","El Dorado","CA",1874,1888,38.9332411,-119.9843482
"RUNNING BRUSHY","Williamson","TX",1874,1880,,
"RUSH CENTER","Rush","KS",1874,,38.463069,-99.3112164
"RUTLAND","Montgomery","KS",1874,1901,37.196897,-95.901114
"SADDLE CREEK","Lincoln","SD",1874,1895,43.200818,-96.7086551
"SAGE","Burnet","TX",1874,1906,,
"SAINT CLERE","Pottawat","KS",1874,1953,,
"SAINT PAUL","Marion","OR",1874,,45.2103366,-122.976915
"SAINT PETER","Cedar","NE",1874,1902,42.5980545,-97.0450466
"SALINA","Boulder","CO",1874,1925,40.0505415,-105.3724934
"SALT CITY","Sumner","KS",1874,1885,,
"SALT SPRINGS","Lane","OR",1874,1875,44.1903994,-122.0492213
"SAN DIEGUITO","San Diego","CA",1874,1886,33.0375424,-117.2744813
"SAN JUAN","Mineral","CO",1874,1904,,
"SAN PASQUAL","San Diego","CA",1874,1901,32.7328246,-114.6157856
"SAN YSIDRO","Sandoval","NM",1874,1879,35.563363,-106.7705907
"SANTA PAULA","Ventura","CA",1874,,34.3533325,-119.0603816
"SANTA RITA","Monterey","CA",1874,1907,36.7243127,-121.6524581
"SAPELLO","San Miguel","NM",1874,1975,35.7728199,-105.2533437
"SCANDINAVIA","Harlan","NE",1874,1888,,
"SCHULENBURG","Fayette","TX",1874,,29.680663,-96.907615
"SCHUSSLER","Gillespie","TX",1874,1875,,
"SCRIBNER","Dodge","NE",1874,,41.6666664,-96.6658622
"SEALSVILLE","Moody","SD",1874,1874,,
"SEELEY","York","NE",1874,1881,,
"SEGO","Reno","KS",1874,1905,37.7919594,-98.16423
"SHARPSBURG","San Patricio","TX",1874,1908,,
"SHAUNTIE","Beaver","UT",1874,1878,38.341076,-113.166627
"SHEARER'S FERRY","Idaho","ID",1874,1888,,
"SHINGLETOWN","Shasta","CA",1874,,40.4923784,-121.8891586
"SHIP HARBOR","Skagit","WA",1874,1875,48.5042701,-122.674063
"SHIP ISLAND","Skagit","WA",1874,1874,,
"SIDNEY","Cheyenne","NE",1874,,41.1427623,-102.9779785
"SILVER LAKE","Van Zandt","TX",1874,1955,32.6698537,-95.5957927
"SILVER SPRING","Salt Lake","UT",1874,1879,,
"SIX MILE","Wyandotte","KS",1874,1878,,
"SKULL CREEK","Butler","NE",1874,1886,,
"SLAB CITY","Decatur","KS",1874,1879,39.6794486,-100.2934724
"SMALLWOOD","Comanche","KS",1874,1875,,
"SMITHS MILL","Yavapai","AZ",1874,1877,33.8058662,-112.671286
"SOUTH FORK","Elko","NV",1874,1874,40.6402039,-115.7258965
"SOUTH LOUP","Buffalo","NE",1874,1877,,
"SOUTH PARK","Park","CO",1874,1879,,
"SOUTH PUEBLO","Pueblo","CO",1874,1887,,
"SPARTA","McPherson","KS",1874,1902,38.2169537,-97.6439326
"SPENCER CREEK","Lane","OR",1874,1879,43.9829016,-123.2281468
"SPRING BANK","Dixon","NE",1874,1894,42.4166652,-96.8044836
"SPRING VALLEY","Turner","SD",1874,1895,43.2560991,-97.2581134
"SPRINGVALE","Las Animas","CO",1874,1875,,
"SPRINGWATER","Clackamas","OR",1874,1914,45.2506768,-122.3395287
"SPRUCE HILL","Napa","CA",1874,1875,,
"STANISLAUS","Stanislaus","CA",1874,1875,37.7118733,-121.0277136
"STEINAUER","Pawnee","NE",1874,,40.2077778,-96.2341767
"STERLING","Logan","CO",1874,,40.6255415,-103.207709
"STILLWATER","Webster","NE",1874,1879,,
"STONE","Malheur","OR",1874,1887,44.216548,-117.4871328
"STONEWALL","Pontotoc","OK",1874,,34.6462478,-96.5295267
"STRINGTOWN","Atoka","OK",1874,,34.4659517,-96.0529656
"SUGAR LOAF","Coryell","TX",1874,1899,,
"SULPHUR CREEK","Colusa","CA",1874,1915,39.0396165,-122.4083104
"SULPHUR STATION","Bowie","TX",1874,1899,33.312905,-94.0557419
"SUMNER","Coos","OR",1874,1955,43.2817777,-124.1509412
"SUMTER","Baker","OR",1874,1878,44.7457069,-118.2021633
"SUTTON","Robertson","TX",1874,1911,30.8213038,-96.5299676
"SWEET HOME","Linn","OR",1874,,44.3970691,-122.7253624
"SWEETWATER","Buffalo","NE",1874,1961,41.0444553,-99.0075863
"SYLVANIA","Inyo","CA",1874,1895,,
"TAYLORS FLAT","Trinity","CA",1874,1876,40.3690344,-123.3211384
"TECOLOTE","San Miguel","NM",1874,1875,35.4603222,-105.2805641
"THE GROVE","Coryell","TX",1874,1967,31.2732272,-97.5252924
"THORNTON","Polk","NE",1874,1895,,
"THORPS SPRING","Hood","TX",1874,1958,32.4740263,-97.826698
"THURMAN","Chase","KS",1874,1909,38.1008519,-96.5169547
"TREGO","Trego","KS",1874,1900,38.8855662,-99.8917877
"TRES ALAMOS","Cochise","AZ",1874,1886,,
"TURKEY CREEK","Jefferson","CO",1874,1875,39.6524877,-105.1413757
"TWELVE MILE","Snlith","KS",1874,1894,,
"TYBO","Nye","NV",1874,1937,38.3699337,-116.401446
"ULYSSES","Mitchell","KS",1874,1881,,
"UNION","Smith","KS",1874,1878,,
"UPLAND","Jewell","KS",1874,1886,39.9875136,-98.4381115
"UTICA","Seward","NE",1874,,40.894455,-97.3475466
"VALLEY","San Diego","CA",1874,1878,32.9542124,-117.0458647
"VENADO","Colusa","CA",1874,1914,,
"VERDIGRIS VALLEY","Knox","NE",1874,1884,42.5961136,-98.0336814
"VERMEJO","Colfax","NM",1874,1907,,
"VERNON","Tooele","UT",1874,,40.0932789,-112.4327308
"VICTORIA","Cass","NE",1874,1893,,
"WABUSKA","Lyon","NV",1874,1966,39.1438073,-119.1832104
"WADES BRANCH","Miami","KS",1874,1880,38.6630664,-94.9205196
"WAELDER","Gonzales","TX",1874,,29.693538,-97.299283
"WAHPETON","Richland","ND",1874,,46.265557,-96.613855
"WALKER","Sacramento","CA",1874,1881,,
"WALKER STATION","Red River","TX",1874,1884,,
"WALNUT GROVE","Yavapai","AZ",1874,1915,34.2819715,-112.5496169
"WALTON","Whitman","WA",1874,1875,,
"WAMBAT","Tulare","CA",1874,1876,,
"WANARI","Bon Homme","SD",1874,1897,,
"WATERFORD","Wahkiakum","WA",1874,1911,46.1531657,-123.2679007
"WATERVILLE","Boone","NE",1874,1877,41.57029,-97.8661674
"WELDA","Anderson","KS",1874,,38.1694699,-95.2946995
"WEST CEDAR","Phillips","KS",1874,1888,39.8294557,-99.1236988
"WEST UNION","Norton","KS",1874,1880,39.6383396,-99.7392821
"WEST UNION","Washington","OR",1874,1894,45.5665051,-122.8939914
"WESTFIELD","McPherson","KS",1874,1888,38.3252865,-97.7711573
"WESTMINSTER","Orange","CA",1874,,33.75432,-118.00775
"WESTON","Geary","KS",1874,1904,38.9277788,-96.5869476
"WHEATVILLE","Fresno","CA",1874,1875,36.5138398,-119.5540175
"WHITLEY'S FORD","Modoc","CA",1874,1875,,
"WILDERVILLE","Falls","TX",1874,1904,31.104627,-96.8830402
"WILLIAMSBURG","Phelps","NE",1874,1903,40.6500095,-99.4559356
"WILLITS","Mendocino","CA",1874,,39.4172491,-123.3540787
"WILLOW ISLAND","Dawson","NE",1874,,40.9252849,-100.0723463
"WILLOWDALE","Antelope","NE",1874,1904,42.2350054,-97.8925651
"WILTON","Phillips","KS",1874,1875,,
"WINKLER'S MILLS","Riley","KS",1874,1895,39.4816652,-96.8316803
"WINLOCK","Lewis","WA",1874,,46.4901069,-122.8917856
"WINNESHEIK","McPherson","KS",1874,1902,38.4166743,-97.5447593
"WOLF'S CROSSING","Burnet","TX",1874,1893,30.6196311,-98.3939161
"WOODEY","Lincoln","KS",1874,1888,39.1425048,-98.024769
"WOODLAWN","Harrison","TX",1874,,32.66415,-94.343337
"WOODLAWN","Lancaster","NE",1874,1901,40.8800027,-96.7791851
"WOODVILLE","Platte","NE",1874,1904,,
"WORTHAM","Freestone","TX",1874,,31.787846,-96.463135
"WORTHINGTON","Barnes","ND",1874,1878,46.9255,-98.001974
"YELLOWSTONE CROSSING","Park","MT",1874,1875,45.6902133,-110.5299271
"YSLETA","El Paso","TX",1874,1959,31.7042777,-106.3508164
"ZION","Clackamas","OR",1874,1884,45.3151211,-122.342586
"ADAMSON","Rooks","KS",1875,1892,39.5513966,-99.5851086
"ADOBETOWN","Madison","MT",1875,1907,45.3179807,-111.9830368
"AGUA FRIA VALLEY","Yavapai","AZ",1875,1893,,
"ALADDIN","Douglas","KS",1875,1881,,
"ALDER GROVE","Burt","NE",1875,1888,41.694437,-96.366966
"ALFRED","Douglas","KS",1875,1902,38.8347268,-95.3908094
"ALGERNON","Lewis","WA",1875,1875,,
"ALLAH","Hunt","TX",1875,1878,,
"ALLEN'S CAMP","Kern","CA",1875,1875,,
"ALLENTOWN","Turner","SD",1875,1882,,
"ALTAMONT","Labette","KS",1875,,37.1903448,-95.2971928
"AMADOR","Butler","KS",1875,1902,38.0430738,-96.9586406
"AMAZON","Franklin","NE",1875,1887,40.2983478,-98.7320163
"ANDREWS STATION","Los Angeles","CA",1875,1879,,
"ANGEL ISLAND","Marin","CA",1875,1945,37.8627046,-122.4319164
"ANIMAS FORKS","San Juan","CO",1875,1915,37.931107,-107.5714483
"ANTELOPE VALLEY","Yavapai","AZ",1875,1890,34.1653048,-112.7293446
"ANTLER","Lake","OR",1875,1892,42.3401589,-120.2969039
"APPLEGATE","Placer","CA",1875,,38.9976748,-120.9946654
"ARLINGTON","Otoe","NE",1875,1876,,
"ARMADA","Buffalo","NE",1875,1890,40.927787,-99.3912109
"ASH GROVE","Franklin","NE",1875,1901,,
"ASHLAND","Ness","KS",1875,1883,,
"ASHMEAD","Ellsworth","KS",1875,1888,38.5688989,-98.3167294
"AVON","Hamilton","NE",1875,1881,41.0030693,-98.0095019
"AYR","Butler","KS",1875,1885,37.9389063,-97.0197557
"BAIRDSTOWN","San Bernardino","CA",1875,1875,,
"BAKE OVEN","Wasco","OR",1875,1913,45.185678,-120.9736688
"BALD PRAIRIE","Robertson","TX",1875,1951,31.2235136,-96.4327478
"BALL'S FERRY","Shasta","CA",1875,1916,40.4173759,-122.1949998
"BARRON","Jackson","OR",1875,1910,42.125968,-122.6114176
"BATEHAM","Clay","KS",1875,1902,39.1474962,-97.0919611
"BEACHAMVILLE","Nuckolls","NE",1875,1881,40.2536232,-98.2561584
"BEAR'S MOUTH","Granite","MT",1875,1892,46.7102076,-113.3314641
"BEAVER BROOK","Jefferson","CO",1875,1892,39.7360988,-105.3241583
"BEAVER LAKE","Minnehaha","SD",1875,1877,43.6358219,-97.051404
"BELKNAP'S SPRINGS","Lane","OR",1875,1877,44.1903994,-122.0492213
"BEMAN","Morris","KS",1875,1906,38.8188926,-96.4269447
"BEN'S RANCH","Ellsworth","KS",1875,1894,38.8311187,-98.1378309
"BERG","Buffalo","NE",1875,1884,,
"BERLIN","Richland","ND",1875,1883,46.1271808,-96.858691
"BERNARDO PRAIRIE","Colorado","TX",1875,1898,,
"BERRY CREEK","Butte","CA",1875,,39.6393301,-121.4302448
"BEVERLY","Coryell","TX",1875,1883,,
"BIG LAGUNA","San Diego","CA",1875,1878,,
"BIG SANDY","Upshur","TX",1875,,32.5837521,-95.1088328
"BLACK BOB","Johnson","KS",1875,1879,38.8626835,-94.7690629
"BLACK LAND","Milam","TX",1875,1876,,
"BLANKET","Brown","TX",1875,,31.823494,-98.787088
"BLENDON","Sedgwick","KS",1875,1884,37.6597363,-97.5753256
"BLOWOUT","Blanco","TX",1875,1918,30.4471378,-98.5775316
"BLUFFVILLE","Ellsworth","KS",1875,1887,,
"BONANZA","Klamath","OR",1875,,42.2002778,-121.4061111
