"Post.Office","County","State","Established","Discontinued","Latitude","Longitude"
"NACOGDOCHES","Nacogdoche","TX",1779,,,
"LAWTON","Cherokee","KS",1800,1985,37.2220015,-94.6360652
"HUFSMITH","Harris","TX",1802,1963,30.1236,-95.5964
"SAN FELIPE","Austin","TX",1826,,29.797487,-96.1004578
"GOLIAD","Goliad","TX",1829,,28.665667,-97.393695
"GALVESTON","Galveston","TX",1830,,29.302439,-94.795978
"EAGLETOWN","McCurtain","OK",1834,,34.0419086,-94.5749681
"BEAUMONT","Jefferson","TX",1835,,30.084555,-94.102195
"BRAZORIA","Brazoria","TX",1835,,29.0524656,-95.570007
"COLUMBIA","Brazoria","TX",1835,1927,29.1427466,-95.6152241
"EGYPT","Wharton","TX",1835,,29.4059379,-96.2382848
"GONZALES","Gonzales","TX",1835,,29.506282,-97.454376
"LIBERTY","Liberty","TX",1835,,30.059139,-94.80141
"MATAGORDA","Matagorda","TX",1835,,28.690572,-95.968545
"REFUGIO","Refugio","TX",1835,,28.299551,-97.27312
"SAN ANTONIO","Bexar","TX",1835,,29.4241219,-98.4936282
"SAN AUGUSTINE","San Augustine","TX",1835,,31.5294207,-94.111699
"SAN PATRICIO","San Patricio","TX",1835,1929,27.9544619,-97.7719419
"VELASCO","Brazoria","TX",1835,1957,28.9647505,-95.3646628
"VICTORIA","Victoria","TX",1835,,28.8141042,-96.9885505
"WASHINGTON","Washington","TX",1835,,30.3253635,-96.1579814
"JASPER","Jasper","TX",1836,,30.9216834,-94.0027802
"BASTROP","Bastrop","TX",1837,,30.1118657,-97.3202881
"CANEY","Matagorda","TX",1837,1914,28.9635885,-95.8546775
"CINCINNATI","Walker","TX",1837,1893,30.9035212,-95.545221
"HOUSTON","Harris","TX",1837,,29.7656154,-95.3646003
"HUNTSVILLE","Walker","TX",1837,,30.724694,-95.553831
"MONTGOMERY","Montgomery","TX",1837,,30.3846505,-95.6624458
"SALEM","Newton","TX",1837,1897,30.5424254,-93.7679522
"SHELBYVILLE","Shelby","TX",1837,,31.7591,-94.078899
"ANAHUAC","Chambers","TX",1838,,29.769285,-94.682962
"BELGRADE","Newton","TX",1838,1937,30.6857573,-93.6635081
"COLUMBUS","Colorado","TX",1838,,29.705774,-96.5508459
"CROCKETT","Houston","TX",1838,,31.317873,-95.455904
"FRANKLIN","Robertson","TX",1838,,31.027431,-96.485471
"INDEPENDENCE","Washington","TX",1838,1958,30.319377,-96.3466306
"RICHMOND","Fort Bend","TX",1838,,29.5378718,-95.701752
"SPRING HILL","Harrison","TX",1838,,32.5198712,-94.5407586
"AUSTIN","Travis","TX",1839,,30.2732637,-97.7652836
"CLARKSVILLE","Red River","TX",1839,,33.613386,-95.050756
"DAINGERFIELD","Morris","TX",1839,,33.0328275,-94.7237824
"DE KALB","Bowie","TX",1839,,33.510049,-94.618811
"DOUGLASS","Nacogdoches","TX",1839,,31.6679205,-94.8861024
"LAGRANGE","Fayette","TX",1839,,29.9055033,-96.876647
"LAMAR","Aransas","TX",1839,1918,28.1394565,-97.0055455
"MARSHALL","Harrison","TX",1839,,32.5409734,-94.3659806
"PINE ISLAND","Jefferson","TX",1839,1912,30.0563252,-94.2774081
"RUTERSVILLE","Fayette","TX",1839,1972,29.9477242,-96.7972005
"SEGUIN","Guadalupe","TX",1839,,29.568028,-97.97045
"SHELBY","Austin","TX",1839,1912,30.0216106,-96.5983064
"CUERO","Dewitt","TX",1840,,,
"ELYSIAN FIELDS","Harrison","TX",1840,,32.3683905,-94.1835923
"PATROON","Shelby","TX",1840,1974,31.6229546,-93.9810245
"ZUMWALT'S","Lavaca","TX",1840,,,
"CALDWELL","Burleson","TX",1841,,30.5334114,-96.6946728
"FORT LEAVENWORTH","Leavenworth","KS",1841,,39.355743,-94.925948
"MELROSE","Nacogdoches","TX",1841,1921,31.5615706,-94.4765951
"PORT LAVACA","Calhoun","TX",1841,,28.6170858,-96.6421337
"BURLEIGH","Austin","TX",1842,1913,29.9196707,-96.1502386
"FORT GIBSON","Muskogee","OK",1842,,35.7938563,-95.2391873
"INDUSTRY","Austin","TX",1842,,29.973667,-96.502055
"PARIS","Lamar","TX",1842,,33.660037,-95.55111
"PINE ISLAND","Austin","TX",1842,,30.0579976,-96.0374576
"BOSTON","Bowie","TX",1843,,33.4415086,-94.4196452
"FORT SCOTT","Bourbon","KS",1843,,37.8296951,-94.7052171
"HENDERSON","Rusk","TX",1843,,32.148782,-94.7989
"HONEY GROVE","Fannin","TX",1843,,33.5826343,-95.90958
"JEFFERSON","Marion","TX",1843,,32.7562979,-94.3464133
"TOWN BLUFF","Tyler","TX",1843,1931,30.7879803,-94.1804689
"WHEELOCK","Robertson","TX",1843,,30.8989566,-96.3919163
"BONHAM","Fannin","TX",1844,,33.576174,-96.17775
"BRENHAM","Washington","TX",1844,,30.169559,-96.397362
"CHAMBERS' CREEK","Ellis","TX",1844,1891,,
"CORPUS CHRISTI","Nueces","TX",1844,,27.798746,-97.427237
"DALLAS","Dallas","TX",1844,,32.7830556,-96.8066667
"COW CREEK","Newton","TX",1845,,30.5735359,-93.7285073
"LIVERPOOL","Brazoria","TX",1845,,29.293967,-95.278604
"MAYHEW","Choctaw","OK",1845,1902,34.0609315,-95.8860881
"NEW BRAUNFELS","Comal","TX",1845,,29.696759,-98.116535
"POINT ISABEL","Cameron","TX",1845,1930,26.0768697,-97.209045
"SEMPRONIUS","Austin","TX",1845,1905,30.0702201,-96.2805193
"WHEELOCK","McCurtain","OK",1845,1895,33.9894444,-94.9902778
"FLINT","Adair","OK",1846,1896,,
"LEONA","Leon","TX",1846,,31.1554059,-95.9684898
"MILAM","Sabine","TX",1846,,31.4329825,-93.8476502
"PALMER'S","San Jacinto","TX",1846,1910,,
"ROUND TOP","Fayette","TX",1846,,30.063611,-96.693011
"SAN MARCOS","Hays","TX",1846,,29.884296,-97.942057
"ASTORIA","Clatsop","OR",1847,,46.189369,-123.8352045
"BURKEVILLE","Newton","TX",1847,,30.9991706,-93.6693598
"CAMERON","Milam","TX",1847,,30.8519367,-96.9771007
"CASTROVILLE","Medina","TX",1847,,29.3516512,-98.8867228
"CHAPEL HILL","Washington","TX",1847,,30.1427171,-96.2569071
"DOAKSVILLE","Choctaw","OK",1847,1903,,
"ERIN","Jasper","TX",1847,1923,30.7796473,-93.9968529
"FRELSBURG","Colorado","TX",1847,1908,29.8710611,-96.5466383
"GILMER","Upshur","TX",1847,,32.731998,-94.939259
"GREENVILLE","Hunt","TX",1847,,33.1246718,-96.1171186
"LARISSA","Cherokee","TX",1847,1905,32.0559958,-95.324951
"LIVINGSTON","Polk","TX",1847,,30.7104792,-94.9481782
"MOUNT PLEASANT","Titus","TX",1847,,33.1555206,-94.9697939
"OREGON CITY","Clackamas","OR",1847,,45.3567875,-122.5962024
"PALESTINE","Anderson","TX",1847,,31.7582267,-95.6274556
"PENDLETON","Sabine","TX",1847,1907,,
"RED OAK","Ellis","TX",1847,,32.5323925,-96.8178841
"RUSK","Cherokee","TX",1847,,31.7947739,-95.1510274
"SHERMAN","Grayson","TX",1847,,33.5943881,-96.6017673
"TAHLEQUAH","Cherokee","OK",1847,,35.9201156,-94.9836527
"TYLER","Smith","TX",1847,,32.3682425,-95.3261456
"WHARTON","Wharton","TX",1847,,29.3107895,-96.0991504
"WOODVILLE","Tyler","TX",1847,,30.774042,-94.417923
"BLACK JACK  GROVE","Hopkins","TX",1848,1896,,
"FARMER'S BRANCH","Dallas","TX",1848,1954,32.9346625,-96.8883794
"FREDERICKSBURG","Gillespie","TX",1848,,30.2861599,-98.8865786
"GEORGETOWN","Williamson","TX",1848,,30.622687,-97.687991
"GRAY ROCK","Franklin","TX",1848,1906,33.1590068,-95.1268847
"IONI","Anderson","TX",1848,1900,,
"LAKE CREEK","Delta","TX",1848,,33.4466181,-95.5879307
"LOCKHART","Caldwell","TX",1848,,29.8836665,-97.6741435
"MCKINNEY","Collin","TX",1848,,33.202118,-96.637342
"MILLVILLE","Rusk","TX",1848,1897,,
"PINE BLUFFS","Red River","TX",1848,,,
"ANDERSON","Grimes","TX",1849,,30.4888494,-95.988141
"BELLVILLE","Austin","TX",1849,,29.9504746,-96.2550608
"BELMONT","Gonzales","TX",1849,,29.5232893,-97.6838872
"BENICIA","Solano","CA",1849,,38.049365,-122.1585777
"BOGGY DEPOT","Atoka","OK",1849,1944,34.2987014,-96.3024934
"BROWNSVILLE","Cameron","TX",1849,,25.931993,-97.499021
"CARTHAGE","Panola","TX",1849,,32.1549268,-94.3393549
"CORSICANA","Navarro","TX",1849,,32.092251,-96.4648073
"EAGLE LAKE","Colorado","TX",1849,,29.5888351,-96.33387
"HALLETTSVILLE","Lavaca","TX",1849,,29.443317,-96.942305
"JONESVILLE","Harrison","TX",1849,,32.49871,-94.1116423
"KAUFMAN","Kaufman","TX",1849,,32.5709248,-96.3123302
"LAREDO","Webb","TX",1849,,27.5067748,-99.508931
"MILLICAN","Brazos","TX",1849,,30.4684486,-96.2045068
"MONTEREY","Monterey","CA",1849,,36.5952358,-121.9015712
"MOUNT ENTERPRISE","Rusk","TX",1849,,31.9177962,-94.6790876
"NEW SALEM","Rusk","TX",1849,1955,31.9415576,-94.9596616
"PORTLAND","Multnomah","OR",1849,,45.5215071,-122.6739849
"PRAIRIE PLAINS","Grimes","TX",1849,1907,,
"RIO GRANDE CITY","Starr","TX",1849,1895,26.390334,-98.816157
"SALEM","Marion","OR",1849,,44.9428975,-123.0350963
"SALT LAKE CITY","Salt Lake","UT",1849,,40.7607794,-111.8910474
"SAN FRANCISCO","San Francisco","CA",1849,,37.7749295,-122.4194155
"SANTA FE","Santa Fe","NM",1849,,35.6869752,-105.937799
"SONOMA","Sonoma","CA",1849,,38.291859,-122.4580356
"SPRING HILL","Navarro","TX",1849,1906,31.9362686,-96.7102684
"STOCKTON","San Joaquin","CA",1849,,37.9574238,-121.289113
"SULPHUR BLUFF","Hopkins","TX",1849,,33.3324971,-95.3947814
"ALBANY","Linn","OR",1850,,44.637344,-123.0978724
"ATHENS","Henderson","TX",1850,,32.205889,-95.850477
"BUTTEVILLE","Marion","OR",1850,1905,45.2623415,-122.8403743
"CENTERVILLE","Leon","TX",1850,,31.258366,-95.976735
"COLD SPRING","San Jacinto","TX",1850,,30.592421,-95.1293818
"FAYETTEVILLE","Fayette","TX",1850,,29.9055638,-96.6735611
"FORT BRIDGER","Uinta","WY",1850,,41.2688392,-110.3398785
"FORT LARAMIE","Goshen","WY",1850,,42.2127448,-104.5171788
"GAY HILL","Washington","TX",1850,1975,30.271879,-96.494135
"HILLSBORO","Washington","OR",1850,,45.5223789,-122.9903216
"JACKSONVILLE","Cherokee","TX",1850,,31.961368,-95.277146
"KICKAPOO","Anderson","TX",1850,1905,,
"KIOMATIA","Red River","TX",1850,1954,33.9376069,-95.2252307
"LAS VEGAS","San Miguel","NM",1850,,35.5939325,-105.2177855
"LINN FLAT","Nacogdoches","TX",1850,1918,31.7898967,-94.7318788
"LOS ANGELES","Los Angeles","CA",1850,,34.05618,-118.3323
"MAGNOLIA SPRINGS","Jasper","TX",1850,,30.7354815,-94.0265754
"MARYSVILLE","Yuba","CA",1850,,39.1457253,-121.5913547
"MILWAUKIE","Clackamas","OR",1850,1929,45.4411111,-122.6375
"MINDEN","Rusk","TX",1850,,32.013499,-94.7074334
"MISSION SAN JOSE","Alameda","CA",1850,1960,37.5482697,-121.9885719
"MOLALLA","Clackamas","OR",1850,,45.1533333,-122.5941667
"NAPA CITY","Napa","CA",1850,1890,38.2971367,-122.2855293
"NEVADA CITY","Nevada","CA",1850,,39.2654494,-121.0191153
"OLYMPIA","Thurston","WA",1850,,47.0378741,-122.9006951
"PEMBINA","Pembina","ND",1850,,48.970513,-97.2514
"PILOT GROVE","Grayson","TX",1850,1907,33.4378875,-96.4247062
"PLACERVILLE","El Dorado","CA",1850,,38.7296252,-120.798546
"PLEASANT HILL","Lane","OR",1850,1922,43.9588889,-122.915
"ROMA","Starr","TX",1850,,26.402921,-98.991208
"SAINT HELEN","Columbia","OR",1850,1913,45.8595589,-122.813159
"SANTA BARBARA","Santa Barbara","CA",1850,,34.4291637,-119.6940235
"SANTA CRUZ","Santa Cruz","CA",1850,,36.976617,-122.0263517
"SANTYAM FORKS","Linn","OR",1850,1952,44.6934556,-122.8764789
"SMITHLAND","Marion","TX",1850,1980,32.8140288,-94.1682418
"SUGAR HILL","Panola","TX",1850,1904,32.2132148,-94.5593712
"VANCOUVER","Clark","WA",1850,,45.6406346,-122.6232842
"WAXAHACHIE","Ellis","TX",1850,,32.388608,-96.844871
"WEAVERVILLE","Trinity","CA",1850,,40.7332,-122.9425265
"ALBUQUERQUE","Bernalillo","NM",1851,,35.0844909,-106.6511367
"ALUM CREEK","Bastrop","TX",1851,1898,30.0677188,-97.2174895
"AMERICAN FORK","Utah","UT",1851,,40.3752288,-111.7963201
"ANTIOCH","Contra Costa","CA",1851,,37.9968661,-121.8094002
"BIDWELL'S BAR","Butte","CA",1851,1900,39.5565531,-121.4413559
"BIG BAR","Trinity","CA",1851,,40.7431971,-123.2672564
"CALEDONIA","Rusk","TX",1851,1905,31.9240584,-94.5268724
"CASCADES","Skamania","WA",1851,1907,45.6684503,-121.8961911
"CATHLAMET","Wahkiakum","WA",1851,,46.2023053,-123.3848308
"CHICO","Butte","CA",1851,,39.7276612,-121.8385888
"COLOMA","El Dorado","CA",1851,,38.800457,-120.8904937
"COTTON GIN","Freestone","TX",1851,1908,31.6810014,-96.3605322
"CYPRESS TOP","Harris","TX",1851,1903,,
"DAYTON","Yamhill","OR",1851,,45.2163889,-123.0844444
"ELKTON","Douglas","OR",1851,,43.6380556,-123.5702778
"EMPIRE","Stanislaus","CA",1851,,37.6379865,-120.9010425
"FAIR PLAY","Panola","TX",1851,1904,32.147106,-94.531315
"FAIRFIELD","Freestone","TX",1851,,31.725657,-96.157627
"FALCON HEIGHTS","Starr","TX",1851,,26.560746,-99.123641
"FORT UNION","Mora","NM",1851,1891,35.907262,-105.0122258
"FRIENDSHIP","Harrison","TX",1851,1905,32.57927,-94.600501
"GAINESVILLE","Cooke","TX",1851,,33.624449,-97.142665
"GEORGETOWN","El Dorado","CA",1851,,38.9068446,-120.8363238
"GILROY","Santa Clara","CA",1851,,37.0057816,-121.5682751
"GOODYEARS BAR","Sierra","CA",1851,,39.5398949,-120.8843931
"HORR'S RANCH","Stanislaus","CA",1851,1895,,
"JACKSON","Amador","CA",1851,,38.3532466,-120.7760462
"JACKSONVILLE","Tuolumne","CA",1851,1918,,
"JOHNSON'S STATION","Tarrant","TX",1851,1905,32.6920772,-97.1280659
"KEMP","Kaufman","TX",1851,,32.442554,-96.231553
"KNIGHTS FERRY","Stanislaus","CA",1851,1962,37.8204833,-120.6727051
"LAFAYETTE","Yamhill","OR",1851,,45.2442834,-123.1148259
"LINWOOD","Cherokee","TX",1851,1903,31.6643437,-94.9904935
"LONG POINT","Washington","TX",1851,1907,30.2366025,-96.5280253
"MANTI","Sanpete","UT",1851,,39.2674618,-111.6365849
"MARIPOSA","Mariposa","CA",1851,,36.1832759,-117.659514
"MARLIN","Falls","TX",1851,,31.3076693,-96.896247
"MARTINEZ","Contra Costa","CA",1851,,38.0193657,-122.1341321
"MERRILLTOWN","Travis","TX",1851,1902,30.4546459,-97.6950068
"MEYERSVILLE","Dewitt","TX",1851,,,
"MILLWOOD","Collin","TX",1851,1907,32.9959533,-96.4183186
"MOKELUMNE HILL","Calaveras","CA",1851,,38.3004709,-120.7063219
"MORMON ISLAND","Sacramento","CA",1851,1890,38.703514,-121.1174457
"MURPHY'S","Calaveras","CA",1851,,38.1374202,-120.4596437
"NICOLAUS","Sutter","CA",1851,,38.9032305,-121.5777385
"NORTH YAMHILL","Yamhill","OR",1851,1908,45.3415037,-123.1873291
"OAK POINT","Cowlitz","WA",1851,1937,46.1909435,-123.1887321
"PAROWAN","Iron","UT",1851,,37.8410864,-112.8302218
"PAYSON","Utah","UT",1851,,40.0430102,-111.7302071
"PRAIRIE LEA","Caldwell","TX",1851,,29.731509,-97.753437
"QUITMAN","Wood","TX",1851,,32.7966697,-95.4491799
"RETREAT","Grimes","TX",1851,1907,,
"ROUGH AND READY","Nevada","CA",1851,,39.2301715,-121.1360642
"SALMON FALLS","El Dorado","CA",1851,1912,38.7579571,-121.0582776
"SAN ELIZARIO","El Paso","TX",1851,,31.588219,-106.273208
"SAN JUAN","San Benito","CA",1851,1905,36.8418104,-121.5319726
"SAN LUIS OBISPO","San Luis Obispo","CA",1851,,35.2838111,-120.6490348
"SAN MIGUEL","San Miguel","NM",1851,1910,35.3644889,-105.450845
"SAN RAFAEL","Marin","CA",1851,,37.9727013,-122.5319208
"SANTA CLARA","Santa Clara","CA",1851,,37.3446637,-121.944124
"SCOTTSBURG","Douglas","OR",1851,,43.654006,-123.8167679
"SHASTA","Shasta","CA",1851,,40.588206,-122.4100094
"SISTERDALE","Kendall","TX",1851,1964,29.9752136,-98.7214171
"SOCORRO","El Paso","TX",1851,1915,31.635391,-106.2822027
"SOCORRO","Socorro","NM",1851,,34.0583995,-106.8914159
"SONORA","Tuolumne","CA",1851,,37.9799245,-120.3707488
"SPRINGVILLE","Utah","UT",1851,,40.1619001,-111.6104748
"SUTHERLAND SPRINGS","Wilson","TX",1851,,29.274878,-98.055907
"TECOLOTE","San Miguel","NM",1851,1923,35.4603222,-105.2805641
"TEHAMA","Tehama","CA",1851,,40.0271015,-122.1211006
"TRINIDAD","Humboldt","CA",1851,,41.0604022,-124.1436803
"VALLEJO","Solano","CA",1851,,38.1040864,-122.2566367
"VOLCANO","Amador","CA",1851,,38.4429658,-120.6307628
"YONCALLA","Douglas","OR",1851,,43.5952778,-123.2838889
"YORKTOWN","Dewitt","TX",1851,,,
"YUBA CITY","Sutter","CA",1851,,39.1393365,-121.6166331
"ABIQUIU","Rio Arriba","NM",1852,,36.207241,-106.3186397
"ALAMO","Contra Costa","CA",1852,,37.8671473,-122.0302396
"ALTO","Cherokee","TX",1852,,31.6493309,-95.0733269
"AMITY","Yamhill","OR",1852,,45.1136111,-123.2052778
"ANAQUA","Victoria","TX",1852,1919,,
"AUBURN","Placer","CA",1852,,38.8993431,-121.0693898
"BASIN SPRINGS","Grayson","TX",1852,1904,33.7267721,-96.8369459
"BELTON","Bell","TX",1852,,31.0561857,-97.4598684
"BETHEL","Anderson","TX",1852,1914,31.9201636,-95.9202415
"BIG OAK FLAT","Tuolumne","CA",1852,,37.8227058,-120.2560234
"BODEGA","Sonoma","CA",1852,,38.345194,-122.9738878
"BROWNSBORO","Henderson","TX",1852,,32.3027615,-95.6176086
"BUCKSPORT","Humboldt","CA",1852,1926,40.744571,-124.1981163
"BURNET","Burnet","TX",1852,,30.757854,-98.222504
"CANTON","Van Zandt","TX",1852,,32.5609246,-95.8740793
"CEDAR CREEK","Bastrop","TX",1852,,30.0858475,-97.4981983
"CEDAR HILL","Dallas","TX",1852,,32.591371,-96.934292
"CHINOOK","Pacific","WA",1852,,46.2735,-123.9458081
"COFFEEVILLE","Upshur","TX",1852,1915,32.8293006,-94.757709
"COLUMBIA","Tuolumne","CA",1852,,38.0363119,-120.4013061
"COSUMNE","Sacramento","CA",1852,1915,38.4924085,-121.1749466
"COTTONWOOD","Shasta","CA",1852,,40.3857087,-122.2808356
"DALLAS","Polk","OR",1852,,44.9163889,-123.3036111
"DOWNIEVILLE","Sierra","CA",1852,,39.5593405,-120.8268905
"DRESDEN","Navarro","TX",1852,1907,32.0307099,-96.6805459
"DRYTOWN","Amador","CA",1852,1963,38.4410213,-120.8543816
"EAGLE PASS","Maverick","TX",1852,,28.7042,-100.482526
"EL PASO","El Paso","TX",1852,,31.795006,-106.376929
"FAIRFIELD","Marion","OR",1852,1902,45.134563,-123.00621
"GARDEN VALLEY","El Dorado","CA",1852,,38.8587897,-120.8493804
"GARDEN VALLEY","Smith","TX",1852,1954,32.5259727,-95.5424594
"GRASS VALLEY","Nevada","CA",1852,,39.2190608,-121.0610606
"GREENWOOD","El Dorado","CA",1852,,38.8965664,-120.9127166
"INDEPENDENCE","Polk","OR",1852,,44.8525,-123.1894444
"LAKE","Trinity","TX",1852,,,
"LINDEN","Cass","TX",1852,,33.0108856,-94.3645136
"LITTLE ELM","Denton","TX",1852,,33.1540018,-96.9477934
"LYNCHBURG","Harris","TX",1852,1927,29.7871704,-95.0554851
"NASHVILLE","El Dorado","CA",1852,1907,38.5787952,-120.8452145
"NORTH CANYONVILLE","Douglas","OR",1852,1892,42.9273406,-123.2811748
"NORTHBRANCH","Calaveras","CA",1852,1925,,
"OAKLAND","Douglas","OR",1852,,43.4283333,-123.2980556
"OMEGA","Upshur","TX",1852,1899,,
"OYSTER CREEK","Brazoria","TX",1852,1899,29.0030239,-95.3318823
"PETALUMA","Sonoma","CA",1852,,38.232417,-122.6366524
"PLANO","Collin","TX",1852,,33.015107,-96.6825066
"PLEASANT GROVE","Utah","UT",1852,,40.3627295,-111.7382622
"PORT SULLIVAN","Milam","TX",1852,1943,30.8835231,-96.7033082
"PORT TOWNSEND","Jefferson","WA",1852,,48.1182363,-122.7677029
"PRESTON","Grayson","TX",1852,1914,33.8823234,-96.6330516
"RAINIER","Columbia","OR",1852,,46.0851127,-122.9309437
"ROSE HILL","Harris","TX",1852,1905,30.0707743,-95.7035576
"ROSELAND","Collin","TX",1852,1907,,
"SALADO","Bell","TX",1852,,30.9493499,-97.5441763
"SALT CREEK","Polk","OR",1852,1903,44.9956722,-123.3528825
"SAN BARNARDINO","San Bernardino","CA",1852,,34.13147,-117.29463
"SAN RAMON","Contra Costa","CA",1852,,37.7752052,-121.9794042
"SANTA ROSA","Sonoma","CA",1852,,38.4163011,-122.6619301
"SEATTLE","King","WA",1852,,47.6062095,-122.3320708
"SIUSLAW","Lane","OR",1852,1898,43.9861111,-124.1044444
"STEILACOOM","Pierce","WA",1852,1971,47.1722,-122.5988
"SUBLIMITY","Marion","OR",1852,,44.8295663,-122.7945335
"SUTTER CREEK","Amador","CA",1852,,38.3929675,-120.8024357
"SWEET HOME","Lavaca","TX",1852,,29.3408247,-97.0791551
"TENNESSEE COLONY","Anderson","TX",1852,,31.8346064,-95.8408781
"TOOELE","Tooele","UT",1852,,40.5318887,-112.2988357
"VALLEY","Guadalupe","TX",1852,1907,,
"WASHOUGAL","Clark","WA",1852,,45.5781241,-122.3538151
"WHISKEYTOWN","Shasta","CA",1852,,40.6387601,-122.5597373
"YANKEE JIM'S","Placer","CA",1852,1940,39.0293428,-120.8616029
"ALVARADO","Alameda","CA",1853,1959,37.5952005,-122.0768144
"ANGELS CAMP","Calaveras","CA",1853,,38.0696443,-120.5410346
"BEN FRANKLIN","Delta","TX",1853,,33.480509,-95.771279
"BLUFF SPRINGS","Travis","TX",1853,1902,30.157712,-97.7688933
"CAT SPRING","Austin","TX",1853,,29.8470726,-96.3264519
"COLBERT","Bryan","OK",1853,,33.8592283,-96.5064812
"COLITA","Polk","TX",1853,1909,30.8838001,-95.0099345
"CONCRETE","Dewitt","TX",1853,1907,,
"CRESCENT CITY","Del Norte","CA",1853,,41.7559481,-124.2017474
"DIAMOND SPRING","El Dorado","CA",1853,1950,38.6946259,-120.8149355
"DRAPER","Salt Lake","UT",1853,,40.3577286,-111.8621554
"EUREKA","Humboldt","CA",1853,,40.8020712,-124.1636729
"FIDDLETOWN","Amador","CA",1853,,38.5037966,-120.7554891
"HARRISBURGH","Harris","TX",1853,1927,29.7182845,-95.2796581
"HELENA","Karnes","TX",1853,1951,28.9538637,-97.8233342
"JAMESTOWN","Tuolumne","CA",1853,,37.9552028,-120.4221395
"LEHI CITY","Utah","UT",1853,1904,40.3916172,-111.8507662
"LEXINGTON","Lee","TX",1853,,30.415266,-97.009281
"LIBERTY HILL","Williamson","TX",1853,,30.6673244,-97.9147184
"LONG TOM","Lane","OR",1853,1904,44.0495672,-123.3895418
"MOSCOW","Polk","TX",1853,,30.9138273,-94.8266465
"MOUNT CARMEL","Smith","TX",1853,1904,,
"NEW ULM","Austin","TX",1853,,29.890163,-96.488705
"NEWTON","Newton","TX",1853,,30.846608,-93.759127
"OSWEGO","Clackamas","OR",1853,1961,45.4206749,-122.6706498
"PROVO CITY","Utah","UT",1853,1904,40.2338438,-111.6585337
"RED BLUFF","Tehama","CA",1853,,40.1784886,-122.2358302
"ROUND PRAIRIE","Douglas","OR",1853,1918,43.0881721,-123.3695139
"SAN LEANDRO","Alameda","CA",1853,1915,37.7181536,-122.1431661
"TARKINGTONS PRAIRIE","Liberty","TX",1853,1914,30.2624328,-94.9246501
"WATSONVILLE","Santa Cruz","CA",1853,,36.9105088,-121.7552279
"WEBBERVILLE","Travis","TX",1853,1903,30.231045,-97.5166653
"WIESS' BLUFF","Jasper","TX",1853,1908,30.2574317,-94.0960135
"YOLO","Yolo","CA",1853,,38.5776832,-121.5307895
"YREKA","Siskiyou","CA",1853,,41.7293075,-122.6372486
"ALAMEDA","Alameda","CA",1854,,37.7652065,-122.2416355
"ALVARADO","Johnson","TX",1854,,32.41565,-97.210747
"ALVISO","Santa Clara","CA",1854,,37.426051,-121.9752373
"BELMONT","San Mateo","CA",1854,,37.5224367,-122.2758008
"BEVILPORT","Jasper","TX",1854,1899,30.9232547,-94.1551919
"BLACK OAK","Hopkins","TX",1854,1905,32.9723427,-95.4307833
"BLUE BRANCH","Lee","TX",1854,1895,30.4099299,-97.1611008
"BUNN'S BLUFF","Orange","TX",1854,1900,30.1679889,-94.1085134
"CAMPO SECO","Calaveras","CA",1854,1963,38.2279734,-120.8532709
"CAMPTONVILLE","Yuba","CA",1854,,39.4518363,-121.05051
"CARRIZO","Zapata","TX",1854,1901,,
"CASTLE ROCK","Cowlitz","WA",1854,,46.2751111,-122.9076141
"CEDAR CITY","Iron","UT",1854,,37.6766436,-113.0571708
"CENTERVILLE","Davis","UT",1854,,40.9205768,-111.8784514
"CHEROKEE","Butte","CA",1854,1912,40.104613,-120.9391224
"CHINESE CAMP","Tuolumne","CA",1854,,37.8710381,-120.4332511
"COLUSA","Colusa","CA",1854,,39.2143343,-122.0094175
"CORDELIA","Solano","CA",1854,1943,38.2104715,-122.1358015
"CORVALLIS","Benton","OR",1854,,44.575,-123.2669444
"COWLITZ","Lewis","WA",1854,1906,46.4739967,-122.4789987
"D'HANIS","Medina","TX",1854,,29.331165,-99.28077
"DONA ANA","Dona Ana","NM",1854,,32.3895356,-106.8119505
"DOUGLASSVILLE","Cass","TX",1854,,33.1918274,-94.3544732
"ELK GROVE","Sacramento","CA",1854,,38.4087993,-121.3716178
"FAIRMOUNT","Sabine","TX",1854,1937,31.1968557,-93.7332357
"FARMINGTON","Davis","UT",1854,,40.9776,-111.889
"FORBESTOWN","Butte","CA",1854,,39.51711,-121.267184
"FOREST CITY","Sierra","CA",1854,1895,39.4912848,-120.8530022
"FORT CALHOUN","Washington","NE",1854,,41.4558282,-96.0264024
"FORT MCKAVETT","Menard","TX",1854,,30.828923,-100.104875
"FRENCH CAMP","San Joaquin","CA",1854,,37.8843699,-121.2704999
"GALESVILLE","Douglas","OR",1854,1916,42.7781753,-123.2958964
"GATESVILLE","Coryell","TX",1854,,31.433759,-97.748287
"GRAFTON","Yolo","CA",1854,1925,38.7996238,-121.718297
"GRAHAM'S MILLS","Shelby","TX",1854,,,
"GRAND ISLAND","Colusa","CA",1854,1919,39.0696163,-121.8969137
"GRAND MOUND","Thurston","WA",1854,1955,46.7951006,-123.045693
"GREEN VALLEY","El Dorado","CA",1854,1911,38.6971254,-121.008554
"HARMONY HILL","Rusk","TX",1854,1905,32.2801569,-94.56576
"HILLSBORO","Hill","TX",1854,,32.0122382,-97.1317168
"IOWA CITY","Placer","CA",1854,1901,39.1085091,-120.8593823
"JACKSONVILLE","Jackson","OR",1854,,42.3172222,-122.9583333
"KAYSVILLE","Davis","UT",1854,,41.0357,-111.9356
"KENTUCKY TOWN","Grayson","TX",1854,1924,33.5217745,-96.4388737
"LA GRANGE","Stanislaus","CA",1854,,37.6635433,-120.4635289
"LAS CRUCES","Dona Ana","NM",1854,,32.3123157,-106.7783374
"LEWISTON","Trinity","CA",1854,,40.7073681,-122.8075227
"MADISONVILLE","Madison","TX",1854,,30.95183,-95.913814
"MARYSVILLE","Marshall","KS",1854,,39.8394023,-96.6438111
"MICHIGAN BLUFF","Placer","CA",1854,1943,39.0429556,-120.7413191
"MILFORD","Ellis","TX",1854,,32.1257753,-96.9451043
"MISSION VALLEY","Victoria","TX",1854,1927,28.8987526,-97.1902258
"MOUNTAIN VIEW","Santa Clara","CA",1854,,37.3860517,-122.0838511
"MYRTLE CREEK","Douglas","OR",1854,,43.0201174,-123.2931205
"NEWTOWN","El Dorado","CA",1854,1912,38.7043483,-120.6790971
"NUECESTOWN","Nueces","TX",1854,1927,,
"OREGON HOUSE","Yuba","CA",1854,,39.344891,-121.2699602
"OROVILLE","Butte","CA",1854,,39.5137752,-121.556359
"PILOT HILL","El Dorado","CA",1854,,38.8349001,-121.0143878
"PRAIRIEVILLE","Kaufman","TX",1854,1954,32.4798611,-96.1030282
"ROCK HILL","Collin","TX",1854,1904,33.2040063,-96.8024993
"ROCKWALL","Rockwall","TX",1854,,32.924799,-96.459664
"ROUND ROCK","Williamson","TX",1854,,30.5167369,-97.6901257
"SABINAL","Uvalde","TX",1854,,29.3197146,-99.4677994
"SALINAS","Monterey","CA",1854,,36.6777372,-121.6555013
"SAN ANDREAS","Calaveras","CA",1854,,38.1960298,-120.6804872
"SAN GABRIEL","Los Angeles","CA",1854,,34.0972312,-118.1075695
"SAN LORENZO","Alameda","CA",1854,,37.6877406,-122.1217777
"SAN PABLO","Contra Costa","CA",1854,1943,37.9610347,-122.3458041
"SANDY POINT","Brazoria","TX",1854,1955,29.385517,-95.4810532
"SCYENE","Dallas","TX",1854,1895,,
"SMITH'S RANCH","Sonoma","CA",1854,1901,,
"STEILACOOM CITY","Pierce","WA",1854,1895,,
"TROUP","Smith","TX",1854,,32.1440733,-95.1199163
"UNION","Salt Lake","UT",1854,1901,40.6068923,-111.8743789
"VACAVILLE","Solano","CA",1854,,38.3565773,-121.9877444
"VALLICITA","Calaveras","CA",1854,1940,38.0901992,-120.4735322
"WESTON","Collin","TX",1854,,33.3480438,-96.6687318
"WOODS","Panola","TX",1854,1906,32.0084999,-94.2482526
"WOODSIDE","San Mateo","CA",1854,1915,37.4448632,-122.2304997
"ALGODONES","Sandoval","NM",1855,1966,35.3805931,-106.4791925
"ALLEN","Lyon","KS",1855,,38.6561191,-96.1697173
"ATCHISON","Atchison","KS",1855,,39.5645915,-95.119504
"BELLEVUE","Sarpy","NE",1855,,41.1366656,-95.8908446
"BERNALILLO","Sandoval","NM",1855,,35.30004,-106.5511369
"CALLOWAY","Upshur","TX",1855,1902,,
"CEDAR VALLEY","Utah","UT",1855,,40.3271707,-112.1043852
"CENTERVILLE","Linn","KS",1855,,38.2208588,-95.0141361
"CENTREVILLE","Alameda","CA",1855,1893,37.5482697,-121.9885719
"CENTREVILLE","Linn","KS",1855,,38.2208588,-95.0141361
"CHARCO","Goliad","TX",1855,1954,28.7405413,-97.6155528
"CLARKSVILLE","El Dorado","CA",1855,1934,38.6549043,-121.0524439
"CLEAR CREEK","Denton","TX",1855,,33.2642847,-97.0486207
"CORN HILL","Williamson","TX",1855,1912,30.8068544,-97.6150096
"COTTAGE GROVE","Lane","OR",1855,,43.7858333,-123.0702778
"COUNCIL GROVE","Morris","KS",1855,,38.6597741,-96.4894045
"COVINGTON","Hill","TX",1855,,32.178859,-97.256309
"DESOTO","Washington","NE",1855,1933,41.4986053,-96.0575135
"DONIPHAN","Doniphan","KS",1855,1943,39.6416624,-95.0808028
"EASTON","Leavenworth","KS",1855,,39.3449988,-95.1158011
"EDOM","Van Zandt","TX",1855,1960,32.3723676,-95.6088495
"EL DORADO","El Dorado","CA",1855,,38.6826817,-120.8477146
"FINCASTLE","Henderson","TX",1855,1907,32.1293237,-95.5677362
"FLORENCE","Douglas","NE",1855,1918,41.3375,-95.96222
"FONTANELLE","Washington","NE",1855,1959,41.538608,-96.4280786
"FORT DAVIS","Jeff Davis","TX",1855,,30.594939,-103.886216
"FORT RILEY","Geary","KS",1855,1917,39.0871639,-96.7962926
"FOURTH CROSSING","Calaveras","CA",1855,1925,38.1313094,-120.6346511
"FRANKLIN","Lane","OR",1855,1902,44.1609565,-123.3045399
"GIBSONVILLE","Sierra","CA",1855,1910,39.7401714,-120.9088398
"GRIFFIN","Cherokee","TX",1855,1906,32.0382201,-95.0754985
"GRIZZLY FLATS","El Dorado","CA",1855,,38.6360169,-120.5271473
"HARRISBURG","Linn","OR",1855,,44.2697222,-123.1608333
"HIGHLAND","Doniphan","KS",1855,,39.8599829,-95.2611311
"INDIAN GULCH","Mariposa","CA",1855,1912,37.439383,-120.1968485
"IOWA POINT","Doniphan","KS",1855,1933,39.928331,-95.2385873
"KICKAPOO CITY","Leavenworth","KS",1855,1902,39.3988869,-94.9710755
"KINGS VALLEY","Benton","OR",1855,1974,44.6948413,-123.432881
"LAWRENCE","Douglas","KS",1855,,38.9716689,-95.2352501
"LECOMPTON","Douglas","KS",1855,,39.0444449,-95.3946967
"LELAND","Josephine","OR",1855,1943,42.6384498,-123.4408984
"LEWISVILLE","Denton","TX",1855,,33.0450592,-97.0234178
"LOS LUNAS","Valencia","NM",1855,,34.8078326,-106.7333599
"MALAKOFF","Henderson","TX",1855,,32.169732,-96.021633
"MAYFIELD","Santa Clara","CA",1855,1930,37.4232728,-122.1438529
"McMINNVILLE","Yamhill","OR",1855,,45.209283,-123.1817714
"MEADOW VALLEY","Plumas","CA",1855,,39.9304458,-121.0607909
"MICHIGAN BAR","Sacramento","CA",1855,1935,38.4837978,-121.0513324
"MOUNT PLEASANT","Atchison","KS",1855,1900,39.4477752,-95.137746
"NATIVIDAD","Monterey","CA",1855,1908,36.732737,-121.5966111
"NEBRASKA CITY","Otoe","NE",1855,,40.6766683,-95.8591686
"NEEDY","Clackamas","OR",1855,1903,45.1726211,-122.7025911
"OAKLAND","Alameda","CA",1855,,37.8043722,-122.2708026
"ONION VALLEY","Plumas","CA",1855,1923,39.7957269,-120.8818949
"OSAWATOMIE","Miami","KS",1855,,38.497647,-94.9473204
"OZAWKIE","Jefferson","KS",1855,,39.2333317,-95.4669194
"PALERMO","Doniphan","KS",1855,1904,39.7324939,-94.9766355
"PATTERSON","Nevada","CA",1855,1909,39.3701706,-121.0430077
"PERSONVILLE","Limestone","TX",1855,1952,31.5126727,-96.3366403
"PILOT POINT","Denton","TX",1855,,33.400039,-96.960939
"PITTSBURG","Camp","TX",1855,,32.9940533,-94.9660893
"PORT ORFORD","Curry","OR",1855,,42.7456645,-124.4973267
"PRINCETON","Colusa","CA",1855,,39.4018304,-122.009975
"QUINCY","Plumas","CA",1855,,39.9368363,-120.9471764
"RANCHO","Gonzales","TX",1855,1911,,
"SAINT LOUIS","Sierra","CA",1855,1915,39.5393438,-120.6571611
"SILVER LAKE","Shawnee","KS",1855,,39.1033322,-95.853342
"SILVERTON","Marion","OR",1855,,45.0144444,-122.7955556
"STRAWBERRY VALLEY","Yuba","CA",1855,,39.564057,-121.1069018
"TECUMSEH","Shawnee","KS",1855,,39.0480558,-95.5791453
"TEKAMAH","Burt","NE",1855,,41.7783218,-96.2211284
"TOPEKA","Shawnee","KS",1855,,39.0483336,-95.6780371
"TRINITY CENTRE","Trinity","CA",1855,1894,40.9832011,-122.6997441
"TUHUNGA","Los Angeles","CA",1855,1894,34.252225,-118.2884105
"VISALIA","Tulare","CA",1855,,36.3302284,-119.2920585
"WABAUNSEE","Wabaunsee","KS",1855,1944,39.1461086,-96.346109
"WAVERLY","Walker","TX",1855,1929,30.5249235,-95.3504964
"WHITE CLOUD","Doniphan","KS",1855,,39.9763876,-95.2969223
"WILLAMINA","Yamhill","OR",1855,,45.0762252,-123.4837194
"WINDSOR","Sonoma","CA",1855,,38.5425623,-122.8184489
"WINNSBORO","Wood","TX",1855,,32.9584335,-95.2880264
"AGNES CITY","Lyon","KS",1856,1891,38.6661186,-96.2794422
"BARNESVILLE","Bourbon","KS",1856,1906,38.0153128,-94.6613471
"BASCOM","Smith","TX",1856,1901,32.3229285,-95.2174484
"BIG SPRINGS","Douglas","KS",1856,1894,39.0130561,-95.4849762
"BLOOMFIELD","Sonoma","CA",1856,1955,38.3113051,-122.8497156
"BOERNE","Kendall","TX",1856,,29.7960053,-98.7274684
"BRIGHAM CITY","Box Elder","UT",1856,,41.5102129,-112.0155015
"BRUSH CREEK","Butte","CA",1856,1916,39.6904417,-121.3391309
"BUTLER","Freestone","TX",1856,1916,31.6637826,-95.9235734
"COLUMBUS","Platte","NE",1856,,41.4325118,-97.3578194
"COMFORT","Kendall","TX",1856,,29.968167,-98.905745
"CUSSETA","Cass","TX",1856,1918,33.1623484,-94.4574202
"DAKOTA","Dakota","NE",1856,1916,42.4158273,-96.4183637
"DAMASCUS","Placer","CA",1856,1908,39.146567,-120.7177101
"DUTCH FLAT","Placer","CA",1856,,39.206009,-120.8377169
"EOLA","Polk","OR",1856,1901,44.9323414,-123.1181537
"EPHRAIM","Sanpete","UT",1856,,39.3621842,-111.5854718
"FOLSOM CITY","Sacramento","CA",1856,1938,38.6779591,-121.1760583
"FORT DEFIANCE","Apache","AZ",1856,,35.7444602,-109.0764828
"FORT GRAHAM","Hill","TX",1856,1903,32.0126538,-97.4039042
"FORT WORTH","Tarrant","TX",1856,,32.7461827,-97.3295173
"FRANKEL CITY","Andrews","TX",1856,1976,32.3842754,-102.7821191
"FRANKLIN","Sacramento","CA",1856,1943,38.3790776,-121.4543973
"FRENCH GULCH","Shasta","CA",1856,,40.7007031,-122.6383512
"GRAND VIEW","Johnson","TX",1856,,32.271038,-97.17299
"HANSONVILLE","Butte","CA",1856,1892,39.4365555,-121.3260739
"HENLEY","Siskiyou","CA",1856,1912,41.9020838,-122.5633586
"HONCUT","Butte","CA",1856,1943,39.3290561,-121.5338564
"HORNSBY","Travis","TX",1856,1901,30.2474328,-97.5833339
"IRON MOUNTAIN","Rusk","TX",1856,1906,,
"JAMESTOWN","Smith","TX",1856,1903,32.5859692,-95.5844043
"KELSEY","El Dorado","CA",1856,,38.8174015,-120.8243796
"KERBY","Josephine","OR",1856,1965,42.1942798,-123.651735
"KING'S RIVER","Fresno","CA",1856,1895,36.7338394,-119.4979071
"LE ROY","Coffey","KS",1856,,38.0839164,-95.6344292
"MANHATTAN","Riley","KS",1856,,39.1836082,-96.5716694
"MERCED FALLS","Merced","CA",1856,1957,37.5229918,-120.3324115
"MERIDIAN","Bosque","TX",1856,,31.924929,-97.651391
"MIDWAY","Madison","TX",1856,,31.019937,-95.7578882
"MILLHEIM","Austin","TX",1856,1913,29.8718954,-96.248297
"MILPITAS","Santa Clara","CA",1856,,37.4235504,-121.9063459
"MINERSVILLE","Trinity","CA",1856,1954,40.8512561,-122.783079
"NEMAHA CITY","Nemaha","NE",1856,1895,40.3383347,-95.6730453
"NEWAUCUM","Lewis","WA",1856,1907,47.2573231,-122.1017822
"NOVATO","Marin","CA",1856,,38.1074199,-122.5697032
"OGDEN","Riley","KS",1856,,39.1154277,-96.7079965
"ORIZABA","Fayette","TX",1856,,,
"OSKALOOSA","Jefferson","KS",1856,,39.2212276,-95.3130339
"OWENSVILLE","Robertson","TX",1856,1897,31.0729625,-96.5194135
"PANA MARIA","Karnes","TX",1856,,28.9575132,-97.89903
"PAOLA","Miami","KS",1856,,38.5749811,-94.8574464
"PEORIA","Hill","TX",1856,1907,31.978212,-97.2219538
"PINE GROVE","Amador","CA",1856,,38.4124112,-120.6543749
"PLANTERSVILLE","Grimes","TX",1856,,30.33711,-95.864805
"RANDOLPH","Riley","KS",1856,1960,39.4337068,-96.7599661
"REDWOOD CITY","San Mateo","CA",1856,,37.4852152,-122.2363548
"SAINT HELENA","Napa","CA",1856,,38.5051866,-122.4702578
"SALEM","Richardson","NE",1856,,40.0755572,-95.7208212
"SAN GABRIEL","Milam","TX",1856,1964,30.6943619,-97.196104
"SANTAQUIN","Utah","UT",1856,,39.9760656,-111.7849329
"SCOTT RIVER","Siskiyou","CA",1856,1906,41.3123662,-122.8016956
"SELMA","Bexar","TX",1856,1906,29.5843948,-98.3058463
"SPANISH FORK","Utah","UT",1856,,40.1127328,-111.6546452
"TABLE ROCK","Pawnee","NE",1856,,40.1783333,-96.0966714
"TELLICO","Ellis","TX",1856,,32.3720873,-96.5124872
"TRES PALACIOS","Matagorda","TX",1856,1904,,
"TUCSON","Pima","AZ",1856,,32.2217429,-110.926479
"WALDO","Josephine","OR",1856,1928,42.0609474,-123.6481229
"WALNUT GROVE","Sacramento","CA",1856,,38.2411111,-121.5147222
"WATHENA","Doniphan","KS",1856,,39.7643438,-94.9525942
"WEATHERFORD","Parker","TX",1856,,32.746262,-97.7810498
"WEBBERS FALLS","Muskogee","OK",1856,,35.5085786,-95.1299872
"WEST POINT","Calaveras","CA",1856,,38.3990786,-120.527426
"WYOMING","Otoe","NE",1856,1928,40.7355578,-95.919449
"ALLEGHANY","Sierra","CA",1857,,39.4696185,-120.843279
"ALPINE CITY","Utah","UT",1857,1895,40.4532834,-111.7779865
"ANACOSTIA","Panola","TX",1857,,,
"APPANOOSE","Douglas","KS",1857,1902,38.739288,-95.464253
"AUGUSTA","Houston","TX",1857,1963,31.5315674,-95.3307785
"AURORA MILLS","Marion","OR",1857,1894,45.2230465,-122.7596478
"AVOCA","Cass","NE",1857,,40.796113,-96.1175089
"BANGOR","Butte","CA",1857,,39.3885002,-121.4052424
"BARRETT","Marshall","KS",1857,1940,39.6694433,-96.4502886
"BEATRICE","Gage","NE",1857,,40.2680555,-96.7469704
"BEAVER","Beaver","UT",1857,,38.2738594,-112.640774
"BECKVILLE","Panola","TX",1857,,32.2424466,-94.4560074
"BOISFORT","Lewis","WA",1857,1907,46.5501034,-123.1329116
"CAPIOMA","Nemaha","KS",1857,1906,39.7766653,-95.820267
"CARSON","Brown","KS",1857,1898,39.8561125,-95.6580402
"CHARLESTON","Delta","TX",1857,1968,33.3864987,-95.5338435
"CIRCLEVILLE","Williamson","TX",1857,1918,30.6374186,-97.4355567
"CLOVERDALE","Sonoma","CA",1857,,38.8054624,-123.0172227
"COLTHARP'S","Houston","TX",1857,1909,,
"COPPER HILL","Parker","TX",1857,,,
"COTTAGE GROVE","Siskiyou","CA",1857,1898,41.602623,-123.5056152
"CRAIN'S MILL","Comal","TX",1857,,29.9207714,-98.2902917
"DECATUR","Wise","TX",1857,,33.2187281,-97.5997506
"DENTON","Denton","TX",1857,,33.217185,-97.1318417
"DOUBLE HORN","Burnet","TX",1857,1911,,
"DRIPPING SPRINGS","Hays","TX",1857,,30.2001567,-98.1081194
"ELWOOD","Doniphan","KS",1857,,39.7571695,-94.883943
"EMPORIA","Lyon","KS",1857,,38.405917,-96.181871
"EUDORA","Douglas","KS",1857,,38.9433372,-95.0985808
"FARMERSVILLE","Collin","TX",1857,,33.1629369,-96.3616375
"FLORENCE","Williamson","TX",1857,,30.844184,-97.79492
"FORT STANTON","Lincoln","NM",1857,,33.495914,-105.5230362
"FREMONT","Dodge","NE",1857,,41.4333328,-96.4980807
"GEARY","Doniphan","KS",1857,1905,39.6744392,-95.0316356
"GREEN HILL","Titus","TX",1857,1907,33.2481723,-94.9960475
"HAGANSPORT","Franklin","TX",1857,1929,33.3415011,-95.2493901
"HAMLIN","Brown","KS",1857,1973,39.9161131,-95.62804
"HARTFORD","Lyon","KS",1857,,38.3100157,-95.9569855
"HEALDSBURG","Sonoma","CA",1857,,38.6104658,-122.8691609
"HELENA","Johnson","NE",1857,1891,40.5005551,-96.2497325
"HEMPSTEAD","Waller","TX",1857,,30.096504,-96.080598
"HOPE","Lavaca","TX",1857,1906,29.2166389,-96.9977619
"HORN HILL","Limestone","TX",1857,1906,31.5690583,-96.6335954
"HURON","Atchison","KS",1857,1989,39.638333,-95.3516423
"JENNY LIND","Calaveras","CA",1857,1951,38.0949216,-120.8699371
"KANWAKA","Douglas","KS",1857,1900,38.9730572,-95.3727524
"KENNEKUK","Atchison","KS",1857,1900,39.6444463,-95.498868
"LA PORTE","Plumas","CA",1857,1957,39.6821146,-120.9841206
"LAFAYETTE","Contra Costa","CA",1857,,37.8857582,-122.1180201
"LAMPASAS","Lampasas","TX",1857,,31.0639587,-98.163431
"LEON SPRINGS","Bexar","TX",1857,1918,29.6605025,-98.6289107
"LLANO","Llano","TX",1857,,30.749453,-98.677381
"LOUISVILLE","Cass","NE",1857,,40.9977765,-96.1622352
"MAHOMET","Burnet","TX",1857,1916,30.8218501,-97.9319635
"MAPLETON","Bourbon","KS",1857,,38.015034,-94.8835775
"MILL CREEK","Salt Lake","UT",1857,1895,40.6893914,-111.8585458
"MONROVIA","Atchison","KS",1857,1955,39.524165,-95.3460848
"MONTICELLO","Titus","TX",1857,1906,33.0959534,-95.0857722
"MOORE'S FLAT","Nevada","CA",1857,1914,39.4190631,-120.8507781
"NEOSHO FALLS","Woodson","KS",1857,,38.0055869,-95.557206
"NEW FOUNTAIN","Medina","TX",1857,1914,29.3866224,-99.0600333
"NEWBURG","Parker","TX",1857,,,
"NIOBRARA","Knox","NE",1857,,42.7547231,-98.0286823
"NORTH BLOOMFIELD","Nevada","CA",1857,1942,39.3682289,-120.8993903
"NORTH SAN JUAN","Nevada","CA",1857,,39.3701699,-121.1024545
"OAKVILLE","Live Oak","TX",1857,1966,28.4491617,-98.1019498
"OAKVILLE","Napa","CA",1857,,38.4368549,-122.4022007
"OLATHE","Johnson","KS",1857,,38.8813958,-94.8191285
"OMEGA","Nevada","CA",1857,1891,39.3332326,-120.7493825
"ORLEANS","Humboldt","CA",1857,,41.3015154,-123.5411704
"OTTUMWA","Coffey","KS",1857,1906,38.2777968,-95.7988764
"PADONIA","Brown","KS",1857,1933,39.9233361,-95.562761
"PEORIA","Franklin","KS",1857,1934,38.5847346,-95.1460816
"PEORIA","Linn","OR",1857,1900,44.4487336,-123.2073187
"PHOENIX","Jackson","OR",1857,,42.2758333,-122.8233333
"PINE HILL","Rusk","TX",1857,1958,32.1046071,-94.605207
"PORT LUDLOW","Jefferson","WA",1857,1965,47.9417578,-122.6876589
"QUINDARO","Wyandotte","KS",1857,1954,39.1294483,-94.6727361
"RAILROAD FLAT","Calaveras","CA",1857,,38.3432471,-120.5121479
"RICH GULCH","Calaveras","CA",1857,1903,38.330192,-120.6310412
"RICHLAND","Shawnee","KS",1857,1969,38.8836141,-95.5397011
"ROCK BLUFF","Cass","NE",1857,1902,40.9291667,-95.8530621
"ROSEBURGH","Douglas","OR",1857,1894,43.2084495,-123.3422935
"ROUND MOUNTAIN","Blanco","TX",1857,,30.4315837,-98.3447448
"SAINT HELENA","Cedar","NE",1857,,42.8097196,-97.2489418
"SAINT MARY`S","Refugio","TX",1857,1907,28.4505575,-96.8755418
"SAN MATEO","San Mateo","CA",1857,,37.5769749,-122.3295073
"SAN SABA","San Saba","TX",1857,,31.191332,-98.717994
"SHAWNEE","Johnson","KS",1857,1960,39.0416718,-94.7202376
"SMITHSONS VALLEY","Comal","TX",1857,1957,29.8129977,-98.3372367
"SOQUEL","Santa Cruz","CA",1857,,36.9882834,-121.9563488
"SPRING HILL","Johnson","KS",1857,,38.7430646,-94.8255166
"STANTON","Miami","KS",1857,1903,38.5433469,-95.0544126
"STARRVILLE","Smith","TX",1857,1907,32.4698681,-95.1160561
"STONY POINT","Sonoma","CA",1857,1911,38.343248,-122.7416552
"SUISUN CITY","Solano","CA",1857,,38.2382474,-122.040244
"SWEETLAND","Nevada","CA",1857,1905,39.3429479,-121.1202324
"SYRACUSE","Otoe","NE",1857,,40.6661126,-96.1805642
"TABLE ROCK","Sierra","CA",1857,1922,39.714894,-120.8866165
"TAYLORSVILLE","Salt Lake","UT",1857,1901,40.679669,-111.9443816
"TECUMSEH","Johnson","NE",1857,,40.3666666,-96.19612
"TISHOMINGO","Johnston","OK",1857,,34.2320446,-96.6754474
"TROY","Doniphan","KS",1857,,39.7850372,-95.092075
"TUTTLETOWN","Tuolumne","CA",1857,1922,37.9915909,-120.4596408
"UVALDE","Uvalde","TX",1857,,29.2091021,-99.7862833
"VEAL'S STATION","Parker","TX",1857,1906,32.9112358,-97.6783606
"WALLISVILLE","Chambers","TX",1857,,29.8383201,-94.73594
"WEEPING WATER","Cass","NE",1857,,40.8700007,-96.1405661
"WHATCOM","Whatcom","WA",1857,1904,48.7590351,-122.4800865
"WILMINGTON","Wabaunsee","KS",1857,1906,38.7444509,-95.9594343
"ZEANDALE","Riley","KS",1857,1944,39.1594419,-96.4266661
"ANTELOPE","Jack","TX",1858,,33.4417752,-98.3697723
"APPLEGATE","Jackson","OR",1858,1959,42.2538889,-123.1525
"BANDERA","Bandera","TX",1858,,29.7298634,-99.0758392
"BATH","Placer","CA",1858,1899,39.0360103,-120.7932659
"BEAR VALLEY","Mariposa","CA",1858,1955,37.5688237,-120.1171266
"BLACK JACK","Douglas","KS",1858,1895,38.7677853,-95.115803
"BLANCO","Blanco","TX",1858,,30.097904,-98.421269
"BROWNWOOD","Brown","TX",1858,,31.718948,-98.983682
"BRUCEPORT","Pacific","WA",1858,1895,46.6792646,-123.9001649
"BURLINGAME","Osage","KS",1858,,38.7576399,-95.8374859
"BURLINGTON","Coffey","KS",1858,,38.1932597,-95.7437496
"BURNT RANCH","Trinity","CA",1858,,40.8334705,-123.4883764
"CAIRO","Jasper","TX",1858,1895,,
"CAMP VERDE","Kerr","TX",1858,1961,29.8938289,-99.1047602
"CARSON CITY","Carson City","NV",1858,,39.1679652,-119.765459
"CATO","Crawford","KS",1858,1905,37.6678224,-94.7399636
"CENTROPOLIS","Franklin","KS",1858,1930,38.7161188,-95.3502536
"CHELSEA","Butler","KS",1858,1907,37.903907,-96.7747476
"CHEROKEE","San Saba","TX",1858,,30.9840509,-98.7078916
"CHERRY SPRING","Gillespie","TX",1858,1912,30.4832461,-99.009215
"CISTERN","Fayette","TX",1858,1953,29.815783,-97.2186
"CLAQUATO","Lewis","WA",1858,1903,46.6434367,-123.0173523
"CLEAR CREEK","Nemaha","KS",1858,1900,39.9599997,-96.1405609
"CLINTON","Douglas","KS",1858,1927,38.9116696,-95.390531
"COTTONWOOD FALLS","Chase","KS",1858,,38.3961161,-96.5348096
"COVINGTON","Dakota","NE",1858,1893,42.4861054,-96.4114183
"CRESCO","Anderson","KS",1858,1891,38.303353,-95.4344249
"CYRUS","Bosque","TX",1858,1898,,
"DEMINGS BRIDGE","Matagorda","TX",1858,1899,,
"DENVERTON","Solano","CA",1858,1911,38.2246364,-121.8974615
"EAGLE FORD","Dallas","TX",1858,1918,32.7634635,-96.9025042
"EDEN","Atchison","KS",1858,1900,39.6347206,-95.2641402
"EMPIRE CITY","Coos","OR",1858,1894,43.3916667,-124.2733333
"EUREKA","Greenwood","KS",1858,,37.8278771,-96.2794888
"FAIRFIELD","Solano","CA",1858,,38.2535247,-122.036633
"FALLS CITY","Richardson","NE",1858,,40.0608352,-95.6019294
"FISH CREEK","Cooke","TX",1858,,33.7603825,-97.1927917
"FOREST GROVE","Washington","OR",1858,,45.5206697,-123.1059408
"FORKS OF SALMON","Siskiyou","CA",1858,,41.2581875,-123.3228286
"FORT BRAGG","Mendocino","CA",1858,,39.4376607,-123.7947932
"FORT QUITMAN","Hudspeth","TX",1858,1937,31.0626316,-105.5838485
"GABRIEL MILLS","Williamson","TX",1858,1905,30.7774072,-97.9272403
"GARDNER","Johnson","KS",1858,,38.8136186,-94.921909
"GENEVA","Allen","KS",1858,1942,38.0169756,-95.4941499
"GENOA","Nance","NE",1858,,41.4486243,-97.7306077
"GRAND ISLAND","Hall","NE",1858,,40.9250123,-98.3420068
"GRAPEVINE","Tarrant","TX",1858,,32.927184,-97.0855053
"HAPPY CAMP","Siskiyou","CA",1858,,41.7931797,-123.3794996
"HEDWIGS HILL","Mason","TX",1858,1907,30.6657367,-99.1119965
"HIAWATHA","Brown","KS",1858,,39.8521717,-95.5230692
"HOCKLEY","Harris","TX",1858,,30.0257333,-95.8458623
"HOLTON","Jackson","KS",1858,,39.4708389,-95.739058
"HOMER","Angelina","TX",1858,1924,31.2890756,-94.6382618
"HOOD RIVER","Hood River","OR",1858,,45.7053966,-121.5214623
"HUMBOLDT","Allen","KS",1858,,37.810675,-95.4334693
"HYNES","Los Angeles","CA",1858,1948,33.8894598,-118.1597911
"INDIAN SPRINGS","Nevada","CA",1858,1893,39.1793385,-121.1938434
"INGLESIDE","San Patricio","TX",1858,,27.8780419,-97.2004699
"JACINTO","Glenn","CA",1858,1910,39.5809946,-122.0066438
"JACKSBORO","Jack","TX",1858,,33.217403,-98.157744
"JUNCTION CITY","Geary","KS",1858,,39.0314044,-96.8505806
"KERRVILLE","Kerr","TX",1858,,30.0445464,-99.1484173
"LA FAYETTE","Upshur","TX",1858,1954,32.8984631,-94.8560445
"LADONIA","Fannin","TX",1858,,33.4248302,-95.9463565
"LANCASTER","Atchison","KS",1858,,39.5727762,-95.3027512
"LONG BRANCH","Panola","TX",1858,,32.074298,-94.568575
"LOWER LAKE","Lake","CA",1858,,38.9104546,-122.6102614
"MACOMB","Grayson","TX",1858,1902,33.5981637,-96.8561115
"MADISON","Greenwood","KS",1858,,38.1270611,-96.1365299
"MARICOPA","Pinal","AZ",1858,,33.0581063,-112.0476423
"MASON","Mason","TX",1858,,30.743718,-99.227891
"MENDOCINO","Mendocino","CA",1858,,39.3115699,-123.7845313
"MESILLA","Dona Ana","NM",1858,,32.2700945,-106.8008376
"MIDDLEBURG","Richardson","NE",1858,1901,40.0294449,-95.9074953
"MONROE","Platte","NE",1858,,42.0111159,-97.4094958
"MONTICELLO","Johnson","KS",1858,1905,38.9988938,-94.8441302
"MOULTON","Lavaca","TX",1858,,29.5726904,-97.1456538
"MOUNTAIN RANCH","Calaveras","CA",1858,,38.2282509,-120.5407599
"NEW DUNGNESS","Clallam","WA",1858,1892,48.1467597,-123.1232335
"NOCKENUT","Wilson","TX",1858,1906,29.3463493,-97.9116694
"OAKWOOD","Linn","KS",1858,1905,38.1683605,-95.035526
"ORANGE","Orange","TX",1858,,30.094416,-93.732814
"ORANGEVILLE","Fannin","TX",1858,1904,33.4784417,-96.3397038
"OYSTERVILLE","Pacific","WA",1858,,46.5489871,-124.0282197
"PALUXY","Erath","TX",1858,,32.271576,-97.906087
"PARDEE","Atchison","KS",1858,1903,39.4852756,-95.2877497
"PAWNEE CITY","Pawnee","NE",1858,,40.1083334,-96.1544512
"PLEASANTON","Atascosa","TX",1858,,28.9592915,-98.4850414
"PLYMOUTH","Lyon","KS",1858,1930,38.4139025,-96.3322223
"PONTOTOC","Johnston","OK",1858,1973,34.4887028,-96.625838
"PORT MADISON","Kitsap","WA",1858,1943,47.7025967,-122.5243022
"REUNION","Dallas","TX",1858,,,
"RIDGEWAY","Osage","KS",1858,1900,37.8494826,-95.6058165
"RIO VISTA","Solano","CA",1858,,38.1557502,-121.6913439
"ROBINSON","Brown","KS",1858,,39.8207597,-95.4111014
"ROCKVILLE","Solano","CA",1858,1902,38.2440815,-122.1221906
"RULO","Richardson","NE",1858,,40.0519451,-95.4269253
"RURAL SHADE","Navarro","TX",1858,1912,32.0501567,-96.1394156
"SABETHA","Nemaha","KS",1858,,39.8990998,-95.7916722
"SAINT JAMES","Cedar","NE",1858,1909,42.7380537,-97.1508832
"SAN JOSE","San Miguel","NM",1858,,35.3972656,-105.4750124
"SAN PEDRO","Houston","TX",1858,1905,31.4751791,-95.3780015
"SAWYERS BAR","Siskiyou","CA",1858,1960,41.2973587,-123.1303203
"SEABECK","Kitsap","WA",1858,,47.6063524,-122.8446442
"SEARSVILLE","San Mateo","CA",1858,1893,37.4024395,-122.2452445
"SEIAD VALLEY","Siskiyou","CA",1858,,41.8404056,-123.1925489
"SENECA","Nemaha","KS",1858,,39.8369007,-96.0660814
"SIMPSONVILLE","Upshur","TX",1858,1906,32.8609623,-95.0693843
"SKOKOMISH","Mason","WA",1858,1890,47.3334263,-123.1573772
"SPANAWAY","Pierce","WA",1858,,47.1043,-122.4345
"SPRING BRANCH","Comal","TX",1858,,29.7971645,-98.4508512
"SUGAR LAND","Fort Bend","TX",1858,,29.6170281,-95.6361572
"SWEETEN","Panola","TX",1858,,,
"TOLEDO","Chase","KS",1858,1903,38.4222356,-96.3711123
"TRINITY MILLS","Dallas","TX",1858,1915,32.981512,-96.927505
"TWIN MOUND","Douglas","KS",1858,1903,38.8602814,-95.4816445
"UKIAH","Mendocino","CA",1858,,39.1501709,-123.2077831
"VESTA","Johnson","NE",1858,1960,40.3563887,-96.337513
"WAUSHARA","Lyon","KS",1858,1895,38.7380622,-96.0438807
"WEITCHPEC","Humboldt","CA",1858,1962,41.1898489,-123.6967274
"WEST POINT","Cuming","NE",1858,,41.8416659,-96.7086432
"WESTMORELAND","Pottawatamie","KS",1858,,,
"WINCHESTER","Jefferson","KS",1858,,39.3222209,-95.2669155
"XENIA","Bourbon","KS",1858,1926,37.9953117,-94.9863594
"YANKEE HILL","Butte","CA",1858,1951,39.721551,-121.5419152
"YELM","Thurston","WA",1858,,46.9514872,-122.6251259
"ALBION","Mendocino","CA",1859,,39.223098,-123.7692485
"AQUILLA","Hill","TX",1859,,31.8508859,-97.2191659
"AUBURN","Shawnee","KS",1859,,38.906114,-95.8160968
"BANQUETE","Nueces","TX",1859,,27.807952,-97.792871
"BAYTOWN","Harris","TX",1859,,29.7690253,-94.969266
"BEEVILLE","Bee","TX",1859,,28.4026457,-97.7487634
"BOULDER","Boulder","CO",1859,,40.01367,-105.27344
"BROWNSVILLE","Linn","OR",1859,,44.3934571,-122.9848108
"BURWOOD","San Joaquin","CA",1859,1898,37.7615946,-120.9552127
"CADDO VILLA","Hunt","TX",1859,,33.063086,-96.230584
"CARLYLE","Allen","KS",1859,1986,37.9936436,-95.3908145
"CEDAR","Fayette","TX",1859,1904,29.8577272,-96.9324818
"CENTRAL HOUSE","Butte","CA",1859,1909,39.3557221,-121.6052476
"CLIFTON","Bosque","TX",1859,,31.783204,-97.575489
"CYPRESS","Upshur","TX",1859,1901,,
"DIAMOND SPRINGS","Morris","KS",1859,1930,38.5575109,-96.7444546
"DIXON","Dixon","NE",1859,,42.4161117,-96.9972675
"DOUGLAS CITY","Trinity","CA",1859,,40.6520897,-122.9447474
"FORESTHILL","Placer","CA",1859,,39.0201768,-120.8179891
"FRENCH CORRAL","Nevada","CA",1859,1945,39.3060036,-121.1613445
"GARNETT","Anderson","KS",1859,,38.2864699,-95.2431813
"GLEN ROCK","Nemaha","NE",1859,1894,40.4436122,-95.8911111
"GREENWOOD","Charles Mix","SD",1859,1965,42.9230521,-98.388414
"GRIGSBY'S BLUFF","Jefferson","TX",1859,1893,29.9913244,-93.9585067
"HAMILTONS FORT","Iron","UT",1859,1913,37.6194218,-113.1507836
"HEMPHILL","Sabine","TX",1859,,31.3435934,-93.8502779
"IOLA","Allen","KS",1859,,37.9226399,-95.3974954
"KINGSTON","Fresno","CA",1859,1890,36.4236111,-119.6936111
"LAKEVILLE","Sonoma","CA",1859,1920,38.2129726,-122.5502604
"LANCHA PLANA","Amador","CA",1859,1919,38.22464,-120.9018833
"LAVERNIA","Wilson","TX",1859,,29.3496806,-98.128519
"LEBANON","Linn","OR",1859,,44.5218426,-122.908349
"LEGION","Llano","TX",1859,1899,,
"LEWIS' FERRY","Jasper","TX",1859,1912,,
"MONMOUTH","Polk","OR",1859,,44.8527778,-123.2247222
"MORONI","Sanpete","UT",1859,,39.5249616,-111.584639
"MOUND CITY","Linn","KS",1859,,38.138536,-94.813391
"NEW LANCASTER","Miami","KS",1859,1906,38.4625165,-94.7330136
"NUECES","Nueces","TX",1859,1893,27.8141925,-97.4619374
"OLEMA","Marin","CA",1859,,38.0421454,-122.7891571
"PACHECO","Contra Costa","CA",1859,1913,37.9818666,-122.0724634
"PESCADERO","San Mateo","CA",1859,,37.247623,-122.3654596
"PINE VALLEY","Washington","UT",1859,1948,37.3910907,-113.5141224
"RANDOLPH","Coos","OR",1859,1893,43.1678871,-124.3565029
"ROCK POINT","Jackson","OR",1859,1912,42.4320664,-123.098939
"SAN QUENTIN","Marin","CA",1859,,37.9413133,-122.4849739
"SANDY MOUNTAIN","Llano","TX",1859,1899,30.5796327,-98.4208609
"SANTA CLARA","Washington","UT",1859,,37.1322023,-113.6419038
"SCIPIO","Anderson","KS",1859,1905,38.3683523,-95.2177513
"SUSANVILLE","Lassen","CA",1859,,40.4162842,-120.6530063
"TEMECULA","Riverside","CA",1859,,33.5103053,-117.1419757
"TUBAC","Santa Cruz","AZ",1859,1942,31.61259,-111.0459238
"VIRGINIA CITY","Storey","NV",1859,,39.3096345,-119.6496235
"WASHINGTON","Washington","UT",1859,,37.1299817,-113.5102312
"WEST MOUNTAIN","Upshur","TX",1859,1905,32.6109748,-94.9154934
"WILLARD","Box Elder","UT",1859,,41.4085497,-112.0377224
"WILLOW HOLE","Madison","TX",1859,1906,,
"WYANDOTTE","Butte","CA",1859,1915,39.4579431,-121.4677449
"ABILENE","Dickinson","KS",1860,,38.9291341,-97.2212109
"AIR HALL","Bell","TX",1860,,,
"ALLEYTON","Colorado","TX",1860,1958,29.7066234,-96.4863586
"AMERICA CITY","Nemaha","KS",1860,1932,39.5736067,-96.0319404
"ARAPAHOE","Cheyenne","CO",1860,,38.8500072,-102.1821277
"ARCATA","Humboldt","CA",1860,,40.8665166,-124.0828396
"ASPINWALL","Nemaha","NE",1860,1903,40.3000009,-95.6419326
"BAZAAR","Chase","KS",1860,1974,38.2719604,-96.5352854
"BELLOTA","San Joaquin","CA",1860,1918,38.0529779,-121.0138298
"BLUE RAPIDS","Marshall","KS",1860,,39.6819447,-96.6597387
"BOSQUEVILLE","McLennan","TX",1860,1907,31.62322,-97.1972278
"BRECKENRIDGE","Summit","CO",1860,,39.4793281,-106.0446015
"CALPELLA","Mendocino","CA",1860,1971,39.2343348,-123.2027828
"CANON CITY","Fremont","CO",1860,,38.440985,-105.242447
"CEDARVILLE","Grays Harbor","WA",1860,1907,46.8584317,-123.2823714
"CENTRALIA","Nemaha","KS",1860,,39.7248141,-96.1332119
"COLES VALLEY","Douglas","OR",1860,1914,43.3651152,-123.502586
"COLORADO CITY","El Paso","CO",1860,1917,38.7230447,-105.1410915
"COMANCHE","Comanche","TX",1860,,31.895859,-98.608334
"COODY'S BLUFF","Nowata","OK",1860,1955,36.6984226,-95.5641434
"CORYELL","Coryell","TX",1860,1958,31.5462735,-97.618353
"COURTNEY","Grimes","TX",1860,1974,30.2671552,-96.0599572
"DANVILLE","Contra Costa","CA",1860,,37.8215929,-121.9999606
"DOUBLE BAYOU","Chambers","TX",1860,1949,29.6927249,-94.6290832
"DOUGHERTY'S STATION","Alameda","CA",1860,1896,37.7021521,-121.9357918
"DUFFAU","Erath","TX",1860,,32.0823672,-98.0219794
"DWAMISH","King","WA",1860,1901,47.5070436,-122.2909571
"EL DORADO","Butler","KS",1860,,37.81724,-96.8622524
"ELK POINT","Union","SD",1860,,42.68686,-96.685524
"FAIR PLAY","El Dorado","CA",1860,1944,38.5868507,-120.6582633
"FORT ABERCROMBIE","Richland","ND",1860,1892,46.4477384,-96.7303557
"FORT CHURCHILL","Lyon","NV",1860,1924,39.2926954,-119.2709923
"FORT JONES","Siskiyou","CA",1860,,41.6076387,-122.8403099
"FORT RANDALL","Gregory","SD",1860,1907,43.0244399,-98.6242505
"FOUNTAIN GREEN","Sanpete","UT",1860,,39.6277376,-111.6346434
"GERTRUDE","Wise","TX",1860,,,
"GOLINDO","Falls","TX",1860,1900,31.3776722,-97.0827751
"HARDEMAN","Matagorda","TX",1860,1901,,
"HARDIN","Hardin","TX",1860,1903,,
"HAW GROVE","Cass","TX",1860,,,
"HERMITAGE","Cass","TX",1860,1904,,
"HERMITAGE","Mendocino","CA",1860,1902,,
"HICO","Hamilton","TX",1860,,31.9815145,-98.0299722
"HIGH HILL","Fayette","TX",1860,1907,29.7180101,-96.9272039
"IONIA","Dixon","NE",1860,1900,42.6624981,-96.7808725
"IRVING","Marshall","KS",1860,1960,39.6388882,-96.5975135
"KEMPER CITY","Victoria","TX",1860,1909,28.645551,-97.0733225
"KIMBALL","Bosque","TX",1860,1907,32.1090392,-97.4858518
"LANCASTER","Dallas","TX",1860,,32.6054127,-96.7716646
"LANE","Bowie","TX",1860,,,
"LENARK FALLS","Cherokee","OK",1860,1896,,
"MANSFIELD","Tarrant","TX",1860,,32.573302,-97.143121
"MARIENNE","Polk","TX",1860,,,
"MILLVILLE","Shasta","CA",1860,,40.5518195,-122.1697228
"MONROE","Rusk","TX",1860,1904,32.3354316,-94.7377113
"MONTAGUE","Montague","TX",1860,,33.6640411,-97.7202808
"MONTESANO","Grays Harbor","WA",1860,,46.979366,-123.602302
"MORALES","Jackson","TX",1860,1956,29.1274775,-96.7624788
"NEW MAINZ","Colorado","TX",1860,,,
"NORTH COLUMBIA","Nevada","CA",1860,1931,39.3726713,-120.9871723
"NORTH OGDEN","Weber","UT",1860,1907,41.3082756,-111.9657754
"OAKLAND","Colorado","TX",1860,,29.6019021,-96.8302671
"PALO PINTO","Palo Pinto","TX",1860,,32.768435,-98.299107
"PAPALOTA","Bee","TX",1860,1953,28.1725089,-97.60194
"PATTONVILLE","Lamar","TX",1860,,33.579616,-95.392357
"PUEBLO","Pueblo","CO",1860,,38.2544472,-104.609141
"ROADVILLE","Houston","TX",1860,,,
"ROCKFORD","Bourbon","KS",1860,1902,37.7583763,-95.0502529
"ROGERSVILLE","Parker","TX",1860,,,
"SABINE PASS","Jefferson","TX",1860,,29.732795,-93.89615
"SAINT GEORGE","Pottawatamie","KS",1860,,,
"SAINT LOUIS","Marion","OR",1860,1901,45.1226192,-122.942319
"SALTILLO","Hopkins","TX",1860,,33.1824556,-95.3312091
"SAN MIGUEL","San Luis Obispo","CA",1860,,35.7496901,-120.6971159
"SANEL","Mendocino","CA",1860,1891,38.9676764,-123.0663903
"SCIO","Linn","OR",1860,,44.7088889,-122.8483333
"SERBIN","Lee","TX",1860,1909,30.1277176,-96.9988725
"SEXTON","Sabine","TX",1860,1927,31.562956,-93.9110221
"SHELDON","Sacramento","CA",1860,1913,38.4307433,-121.3002273
"SILVER CITY","Lyon","NV",1860,,39.2635236,-119.640455
"SOLOMON CITY","Dickinson","KS",1860,1894,38.9194442,-97.371137
"SPRINGDALE","Leavenw","KS",1860,1907,,
"SUMMIT","Iron","UT",1860,1963,37.8010871,-112.9363354
"THE DALLES","Wasco","OR",1860,,45.5945645,-121.1786823
"TOWANDA","Butler","KS",1860,,37.7983033,-97.0010527
"VIRGIN CITY","Washington","UT",1860,1895,37.208316,-113.1882792
"WEESATCHE","Goliad","TX",1860,,28.8472292,-97.4490041
"WHITESBORO","Grayson","TX",1860,,33.6553651,-96.9072829
"WILBUR","Douglas","OR",1860,,43.32095,-123.3406306
"YANKTON","Yankton","SD",1860,,42.888786,-97.386299
"ACTON","Hood","TX",1861,1906,32.4393054,-97.7353057
"ANAHEIM","Orange","CA",1861,,33.8344597,-117.9256151
"BLUE SPRINGS","Gage","NE",1861,,40.1394455,-96.6591898
"BON HOMME","Bon Homme","SD",1861,1903,42.98951,-97.869236
"BUCK'S RANCH","Plumas","CA",1861,1894,,
"CIMARRON","Colfax","NM",1861,,35.510878,-104.9158297
"CIRCLEVILLE","Jackson","KS",1861,,39.5083278,-95.8585993
"CLAYTON","Contra Costa","CA",1861,,37.9410341,-121.9357925
"CLIPPER MILLS","Butte","CA",1861,,39.5287782,-121.1699591
"COMAL RANCHE","Comal","TX",1861,,,
"COPPEROPLIS","Calaveras","CA",1861,,37.9366667,-120.5466667
"CORRALITOS","Santa Cruz","CA",1861,1923,36.9763401,-121.8063417
"ETNA MILLS","Siskiyou","CA",1861,1924,41.4568065,-122.8947551
"FARMINGTON","Grayson","TX",1861,1904,33.4689984,-96.6452684
"FORT LUPTON","Weld","CO",1861,,40.0835577,-104.8119459
"GRAND RONDE","Polk","OR",1861,,45.060113,-123.6092771
"GUITTARD STATION","Marshall","KS",1861,1900,39.9144452,-96.4086258
"HALF MOON BAY","San Mateo","CA",1861,,37.4635519,-122.4285862
"HAMILTON","Hamilton","TX",1861,,31.7029837,-98.1241622
"HAYFORK","Trinity","CA",1861,,40.5543106,-123.1830839
"HOOPA VALLEY","Humboldt","CA",1861,1895,41.0490187,-123.6756124
"HUMBOLDT","Richardson","NE",1861,,40.1638893,-95.9449985
"HYDESVILLE","Humboldt","CA",1861,,40.5490227,-124.093383
"HYRUM","Cache","UT",1861,,41.6338218,-111.8541097
"JANESVILLE","Lassen","CA",1861,,40.3032309,-120.5327231
"JEFFERSON","Marion","OR",1861,,44.7316667,-123.0113889
"JEFFERSON","Park","CO",1861,,39.3772101,-105.8005662
"JUNCTION CITY","Trinity","CA",1861,,40.7301436,-123.0550291
"LA NANA","Nacogdoches","TX",1861,1911,,
"LAKE VALLEY","El Dorado","CA",1861,1895,38.9299079,-120.0046264
"LAKEPORT","Lake","CA",1861,,39.0429506,-122.9158293
"LAKEPORT","Yankton","SD",1861,1901,42.9136092,-97.5808976
"LINCOLN CITY","Summit","CO",1861,1894,,
"LOCKEFORD","San Joaquin","CA",1861,,38.1635297,-121.1499447
"LOGAN","Cache","UT",1861,,41.7343751,-111.8346658
"LONGVILLE","Plumas","CA",1861,1918,40.1476627,-121.2446869
"MAGALIA","Butte","CA",1861,,39.8437722,-121.5888621
"MAINE PRAIRIE","Solano","CA",1861,1913,38.3079677,-121.758847
"MARTINS FERRY","Humboldt","CA",1861,1891,41.2104034,-123.7547847
"MENDON","Cache","UT",1861,,41.7099297,-111.977725
"MILLVILLE","Cache","UT",1861,,41.6807653,-111.8241094
"MUKILTEO","Snohomish","WA",1861,,47.9249055,-122.3010993
"MUSCOTAH","Atchison","KS",1861,,39.5527772,-95.5216451
"NEW ALMADEN","Santa Clara","CA",1861,,37.17689,-121.8399529
"OAK HARBOR","Island","WA",1861,,48.2888074,-122.6538066
"ORO CITY","Lake","CO",1861,1895,39.2508229,-106.2925238
"ORO FINO","Siskiyou","CA",1861,1903,41.5804153,-122.9214229
"PARAGONAH","Iron","UT",1861,1967,37.8858079,-112.7752206
"PERALTA","Valencia","NM",1861,,34.8369984,-106.690581
"PORT DISCOVERY","Jefferson","WA",1861,1925,48.0153682,-122.861836
"PORT ORCHARD","Kitsap","WA",1861,,47.5335,-122.6285
"PORT WINE","Sierra","CA",1861,1918,39.6604487,-120.9485634
"PROVIDENCE","Cache","UT",1861,,41.7082648,-111.8179984
"SAINT GEORGE","Washington","UT",1861,,37.1083142,-113.5824567
"SALINA","Saline","KS",1861,,38.8402805,-97.6114237
"SAN LUIS REY","San Diego","CA",1861,,33.2319797,-117.3236485
"SLIPPERYFORD","El Dorado","CA",1861,1911,,
"SNOHOMISH","Snohomish","WA",1861,,47.9282392,-122.0975105
"SOUTH FORK","Humboldt","CA",1861,,40.2368086,-123.8228124
"SOUTH PASS CITY","Fremont","WY",1861,1957,42.4682883,-108.799836
"SPANISH RANCH","Plumas","CA",1861,1913,39.9507235,-121.0571798
"TABLE BLUFF","Humboldt","CA",1861,1901,40.6581838,-124.2164464
"TEMESCAL","Riverside","CA",1861,1901,33.762796,-117.4853231
"WASHINGTON","Washington","KS",1861,,39.8225843,-97.05516
"WELLSVILLE","Cache","UT",1861,,41.6390988,-111.9332786
"WILLOW SPRINGS","Douglas","KS",1861,1900,38.8186166,-95.2966407
"WOODLAND","Yolo","CA",1861,,38.6785157,-121.7716305
"ANTHONY HOUSE","Nevada","CA",1862,1906,,
"ARAGO","Richardson","NE",1862,1903,40.1369453,-95.5391503
"AUBURN","Baker","OR",1862,1903,44.6993215,-117.9452176
"BROWNSVILLE","Yuba","CA",1862,,39.4732217,-121.2691283
"CAMDEN","Seward","NE",1862,1900,40.7083389,-96.9947522
"CEDAR POINT","Chase","KS",1862,,38.2600169,-96.8197407
"CLAY CENTER","Clay","KS",1862,,39.3862249,-97.1173724
"CLIFTON","Washington","KS",1862,,39.5692168,-97.2823846
"COALVILLE","Summit","UT",1862,,40.9157806,-111.3976966
"COLLINSVILLE","Solano","CA",1862,1960,38.0768635,-121.849958
"CONEJOS","Conejos","CO",1862,,37.0883453,-106.0197445
"COTTONWOOD SPRINGS","Lincoln","NE",1862,1895,41.0027818,-100.5031937
"DAYTON","Lyon","NV",1862,,39.2371353,-119.5929521
"DIXIE","Jackson","TX",1862,,,
"DUNCANS MILLS","Sonoma","CA",1862,,38.453803,-123.0550013
"EL PASO","El Paso","CO",1862,1893,38.8338816,-104.8213634
"ELK CITY","Idaho","ID",1862,,45.8268527,-115.4367941
"ELMA","Grays Harbor","WA",1862,,47.0053983,-123.4033701
"FAIRPLAY","Park","CO",1862,,39.2249641,-106.0010614
"FARMINGTON","San Joaquin","CA",1862,,37.9304806,-121.0046613
"FERNDALE","Humboldt","CA",1862,,40.5762406,-124.2639442
"FOREST HOME","Amador","CA",1862,1905,38.4649096,-120.9641076
"FORT GARLAND","Costilla","CO",1862,,37.4288974,-105.4338999
"FRANKTOWN","Douglas","CO",1862,,39.3909922,-104.7492596
"FRANKTOWN","Washoe","NV",1862,1927,39.2715761,-119.8407415
"GOLD HILL","Storey","NV",1862,1943,39.2904678,-119.6574011
"GUALALA","Mendocino","CA",1862,,38.7657447,-123.5280651
"HACKBERRY","Lavaca","TX",1862,1906,29.5782928,-96.8797023
"HENRIETTA","Clay","TX",1862,,33.8167758,-98.1966443
"HUERFANO","Pueblo","CO",1862,1929,,
"INSKIP","Butte","CA",1862,1915,39.9898823,-121.5410842
"KAMILCHE","Mason","WA",1862,1907,47.1303731,-123.0979271
"LAPORTE","Larimer","CO",1862,,40.6263711,-105.1377578
"LEWISTON","Nez Perce","ID",1862,,46.4165506,-117.0176569
"LINCOLN","Placer","CA",1862,,38.891565,-121.2930079
"MAPLE HILL","Wabaunsee","KS",1862,,39.0847215,-96.0280469
"MINERAL POINT","Anderson","KS",1862,1905,38.3027972,-95.4891488
"MOHAWK","Lane","OR",1862,1957,44.1405556,-122.9122222
"MOUNT BULLION","Mariposa","CA",1862,1955,37.5071591,-120.0448999
"MOUNT EDEN","Alameda","CA",1862,,37.6248959,-122.08967
"NAVASOTA","Grimes","TX",1862,,30.3875894,-96.0883516
"OAKWOOD","Lavaca","TX",1862,,,
"ONTARIO","Jackson","KS",1862,1922,,
"PALMYRA","Otoe","NE",1862,,40.7044451,-96.3875109
"PLEASANT RIDGE","Leavenworth","KS",1862,1895,39.3627893,-95.055682
"PORT ANGELES","Clallam","WA",1862,,48.1159425,-123.4272924
"RANTOUL","Franklin","KS",1862,,38.5486246,-95.1002471
"RICH BAR","Plumas","CA",1862,1942,40.0109982,-121.1930184
"ROCKVILLE","Miami","KS",1862,1902,38.4466833,-94.6585674
"ROSSVILLE","Shawnee","KS",1862,,39.1361097,-95.9516563
"RUBY VALLEY","Elko","NV",1862,1983,40.4221508,-115.4108831
"SALT CREEK","Lampasas","TX",1862,,,
"SALTILLO","Lancaster","NE",1862,1906,40.7000013,-96.6825176
"SAN LUIS","Costilla","CO",1862,,37.2008483,-105.4239012
"SIERRA VALLEY","Sierra","CA",1862,1899,,
"SIGEL","Douglas","KS",1862,1896,,
"TELEGRAPH CITY","Calaveras","CA",1862,1894,37.93437,-120.7399315
"TRINIDAD","Las Animas","CO",1862,,37.1697222,-104.5030556
"UNIONVILLE","Pershing","NV",1862,1956,40.4454634,-118.1206953
"WALLA WALLA","Walla Walla","WA",1862,,46.0645809,-118.3430209
"WALLULA","Walla Walla","WA",1862,,46.0854121,-118.9052776
"WALNUT CREEK","Contra Costa","CA",1862,,37.9080556,-122.0616667
"WASHINGTON","Nevada","CA",1862,,39.3585091,-120.799941
"WASHOE CITY","Washoe","NV",1862,1894,39.3201879,-119.8096307
"WAVELAND","Shawnee","KS",1862,1900,38.8883364,-95.76054
"WHITE RIVER","Tulare","CA",1862,1933,35.8110632,-118.8428706
"WOODBRIDGE","San Joaquin","CA",1862,,38.1501961,-121.3043925
"WYOMING","Marshall","KS",1862,1901,39.6130531,-96.2961165
"ALDER BRANCH","Anderson","TX",1863,,31.6887851,-95.4580064
"ALMA","Wabaunsee","KS",1863,,39.0166657,-96.2891624
"AMADOR CITY","Amador","CA",1863,,38.421022,-120.8249363
"AUSTIN","Lander","NV",1863,,39.4907589,-117.0692563
"BANNACK CITY","Beaverhead","MT",1863,1898,45.1610337,-112.9955907
"BOLINAS","Marin","CA",1863,,37.9093702,-122.6863733
"BOONEVILLE","Pueblo","CO",1863,1891,38.248613,-104.2569104
"CAHTO","Mendocino","CA",1863,1901,,
"CHETCO","Curry","OR",1863,1910,42.006778,-124.2039763
"COSMOPOLIS","Grays Harbor","WA",1863,,46.9563467,-123.7724799
"COW BAYOU","McLennan","TX",1863,,,
"DE SOTO","Johnson","KS",1863,,38.9791709,-94.9685783
"DOGWOOD GROVE","San Augustine","TX",1863,,,
"DOVER","Shawnee","KS",1863,,38.9647239,-95.9374886
"ELLIOTT","San Joaquin","CA",1863,1901,38.2346385,-121.180779
"FISHERMAN'S BAY","Sonoma","CA",1863,1902,38.6476905,-123.4002868
"GENOA","Douglas","NV",1863,,39.0032413,-119.8476794
"GOLD RUN","Placer","CA",1863,,39.1751754,-120.8610506
"GOLDHILL","Boulder","CO",1863,1952,40.0630415,-105.4041612
"HARRISBURG","Washington","UT",1863,1900,37.2058153,-113.3943953
"KNOXVILLE","Napa","CA",1863,1912,38.8276783,-122.3405326
"LA GRANDE","Union","OR",1863,,45.3216667,-118.0972222
"LANE","Franklin","KS",1863,,38.4397392,-95.0821916
"LINDEN","San Joaquin","CA",1863,,38.0213118,-121.0838313
"LONGSTREET","Houston","TX",1863,,,
"MARKLEEVILLE","Alpine","CA",1863,,38.6949057,-119.7801768
"MCCULLOCH","Mcculloch","TX",1863,,,
"MERIDIAN","Sutter","CA",1863,,39.1435032,-121.9144154
"MOUNT IDAHO","Idaho","ID",1863,1922,45.9037756,-116.0820868
"NEOSHO RAPIDS","Lyon","KS",1863,,38.3704081,-95.9906233
"PARALLEL","Washington","KS",1863,1905,39.5666665,-96.8625166
"PIERCE CITY","Clearwater","ID",1863,1892,,
"PLACERVILLE","Boise","ID",1863,1967,43.9432267,-115.94706
"POPE VALLEY","Napa","CA",1863,,38.6151837,-122.427757
"SANTA YNEZ","Santa Barbara","CA",1863,,34.6141536,-120.079868
"SMITH RIVER","Del Norte","CA",1863,,41.9270567,-124.1523054
"SOMMERSVILLE","Contra Costa","CA",1863,1910,37.9568671,-121.8644016
"TONGANOXIE","Leavenworth","KS",1863,,39.109724,-95.0877465
"TUMWATER","Thurston","WA",1863,1960,46.9920411,-122.9248621
"UMATILLA","Umatilla","OR",1863,,45.9161111,-119.3366667
"UNION","Union","OR",1863,,45.2061111,-117.8661111
"VIRGIL","Greenwood","KS",1863,,37.9808617,-96.01027
"WARD DISTRICT","Boulder","CO",1863,1894,,
"WEST BUTTE","Sutter","CA",1863,1930,39.1871131,-121.8880272
"WESTPORT","Clatsop","OR",1863,1959,46.1326105,-123.3748481
"AMANDA","McLennan","TX",1864,,,
"BENNINGTON","Ottawa","KS",1864,,39.0327356,-97.5964694
"BINGHAMTON","Solano","CA",1864,1906,38.3512998,-121.8227388
"BOISE CITY","Ada","ID",1864,1896,43.6135002,-116.2034505
"BRIDGEPORT","Mono","CA",1864,,38.2546416,-119.2284876
"BROWNS VALLEY","Yuba","CA",1864,,39.2354474,-121.4082961
"CAMANCHE","Calaveras","CA",1864,1962,38.2132514,-120.9352175
"CANYON CITY","Grant","OR",1864,,44.3895995,-118.9502315
"CENTREVILLE","Boise","ID",1864,1893,43.9126714,-115.8923353
"CHARLESTON","Wasatch","UT",1864,1955,40.4663446,-111.4699092
"COPPERVALE","Lassen","CA",1864,1914,40.3465575,-120.9049574
"COUPEVILLE","Island","WA",1864,,48.2200328,-122.6896162
"CRAB ORCHARD","Johnson","NE",1864,,40.3349998,-96.4216822
"CROYDON","Morgan","UT",1864,1986,41.0685562,-111.5138141
"CUCAMONGA","San Bernardino","CA",1864,,34.0967,-117.59278
"DESERET","Millard","UT",1864,1974,39.286901,-112.652727
"FAIR VIEW","Sanpete","UT",1864,1894,39.626351,-111.4396325
"FAIRFIELD","Utah","UT",1864,1919,40.2621714,-112.0929961
"FAIRMOUNT","Leavenworth","KS",1864,1934,39.1916687,-94.9355203
"FAYETTE","Sanpete","UT",1864,1966,39.2252386,-111.8565932
"FOUNTAIN","El Paso","CO",1864,,38.6828376,-104.7051789
"FRANKLIN","Franklin","ID",1864,,42.0135375,-111.8071694
"FREEPORT","Sacramento","CA",1864,1920,38.480741,-121.4927326
"GARDINER","Douglas","OR",1864,,43.730117,-124.11039
"GLENDALE","Bourbon","KS",1864,1902,37.9430932,-94.7496842
"GOSHEN","Utah","UT",1864,,39.9510643,-111.8996604
"GRANADA","Nemaha","KS",1864,1906,39.7199979,-95.7935986
"GRANTSVILLE","Tooele","UT",1864,,40.5999425,-112.4643988
"GUNNISON","Sanpete","UT",1864,,39.1388502,-111.8188137
"HADDAM","Washington","KS",1864,,39.8569478,-97.3017023
"HEBER","Wasatch","UT",1864,1964,40.5068991,-111.4132388
"HERRIMAN","Salt Lake","UT",1864,1901,40.5141147,-112.0329938
"HOLDEN","Millard","UT",1864,,39.0988507,-112.2707709
"HOYTSVILLE","Summit","UT",1864,1937,40.8743922,-111.3804732
"HUNTSVILLE","Weber","UT",1864,,41.2599412,-111.7702156
"HYDE PARK","Cache","UT",1864,,41.7993741,-111.8207775
"IDAHO CITY","Boise","ID",1864,,43.8285046,-115.8345537
"KAMAS","Summit","UT",1864,,40.6446736,-111.2818497
"KANARRAVILLE","Iron","UT",1864,1964,37.5388676,-113.1841166
"LATROBE","El Dorado","CA",1864,1921,38.5582402,-120.9813306
"LINCOLN","Clay","SD",1864,1900,42.7944417,-97.1303271
"LOS GATOS","Santa Clara","CA",1864,,37.2213333,-121.9844024
"LOYALTON","Sierra","CA",1864,,39.6762936,-120.2410385
"MEADOW","Millard","UT",1864,,38.8857984,-112.4104943
"MIDWAY","Wasatch","UT",1864,,40.5080107,-111.4696318
"MILFORD","Lassen","CA",1864,,40.1712892,-120.3724376
"MILL CITY","Pershing","NV",1864,1948,40.6835164,-118.0704176
"MINERSVILLE","Beaver","UT",1864,,38.2133029,-112.9252288
"MONA","Juab","UT",1864,,39.8166213,-111.8502126
"MORA","Mora","NM",1864,,35.9742016,-105.3300127
"MORGAN","Morgan","UT",1864,,41.0388338,-111.6802103
"MOUNT PLEASANT","Sanpete","UT",1864,,39.546074,-111.4565771
"NEUCHATEL","Nemaha","KS",1864,1901,39.5680522,-96.201946
"NEWCASTLE","Dixon","NE",1864,,42.6513871,-96.8736527
"NEWCASTLE","Placer","CA",1864,,38.8735102,-121.1332806
"OTTAWA","Franklin","KS",1864,,38.6003318,-95.2784462
"PARADISE","Cache","UT",1864,,41.5688234,-111.8379975
"PENTZ","Butte","CA",1864,1912,39.6551627,-121.5838605
"PEOA","Summit","UT",1864,1986,40.7246718,-111.3418577
"PINTO","Washington","UT",1864,1941,37.538311,-113.5166246
"PIONEERVILLE","Boise","ID",1864,1943,43.9687833,-115.8467795
"PLAIN CITY","Weber","UT",1864,1903,41.3021645,-112.0852205
"PLEASANT VALLEY","El Dorado","CA",1864,1917,38.6832377,-120.6643743
"PRESCOTT","Yavapai","AZ",1864,,34.5397095,-112.4691701
"RENO","Leavenworth","KS",1864,1918,39.0511131,-95.1199698
"RICHLAND","Union","SD",1864,1905,42.7594406,-96.6528136
"RICHMOND","Cache","UT",1864,,41.9227055,-111.8257797
"ROCKVILLE","Washington","UT",1864,1966,37.1610939,-113.0382745
"ROSEVILLE","Placer","CA",1864,,38.7482347,-121.2852281
"SAINT CHARLES","Cuming","NE",1864,1899,41.7933338,-96.748921
"SAINT DEROIN","Nemaha","NE",1864,1910,40.2722219,-95.5599847
"SAN SIMEON","San Luis Obispo","CA",1864,,35.6438587,-121.1907533
"SIERRA CITY","Sierra","CA",1864,,39.5673997,-120.6302161
"SMITHFIELD","Cache","UT",1864,,41.8382622,-111.8327229
"SODA SPRINGS","Caribou","ID",1864,,42.662143,-111.5932795
"SPRINGDALE","Washington","UT",1864,,37.1891491,-112.9993848
"ST. JOHN","Glenn","CA",1864,1917,,
"SUMMIT","Plumas","CA",1864,1897,39.8090711,-120.1938164
"TAYLORSVILLE","Plumas","CA",1864,,40.0748921,-120.8418974
"UNION","Merced","CA",1864,1896,,
"VIRGINIA CITY","Madison","MT",1864,,45.2938143,-111.9460911
"WACONDA","Marion","OR",1864,1926,45.075397,-122.9770413
"WALES","Sanpete","UT",1864,1974,39.4869056,-111.6351961
"WANSHIP","Summit","UT",1864,1939,40.8118925,-111.4074184
"WEST JORDAN","Salt Lake","UT",1864,,40.602,-111.9586
"WILMINGTON","Los Angeles","CA",1864,,33.79711,-118.27399
"ADAMS","Kingman","KS",1865,1954,37.4586284,-97.9775583
"ANNIE","Bowie","TX",1865,,,
"BADITO","Huerfano","CO",1865,1910,37.7272317,-105.0141608
"BELEN","Valencia","NM",1865,,34.6628367,-106.776416
"BIG TREES","Calaveras","CA",1865,1943,38.2774169,-120.3104735
"BLACK POINT","Marin","CA",1865,1952,38.111864,-122.5274793
"CALISTOGA","Napa","CA",1865,,38.5787966,-122.5797054
"COLOMA","Woodson","KS",1865,1902,37.9666988,-95.7183183
"COTTAGE","Angelina","TX",1865,,,
"DUN GLEN","Pershing","NV",1865,1913,40.7418494,-117.9220791
"FIREBAUGH","Fresno","CA",1865,,36.8588376,-120.4560072
"FORT COLLINS","Larimer","CO",1865,,40.5309164,-105.0731578
"FORT DODGE","Ford","KS",1865,,37.7527982,-100.0170787
"GRANTS PASS","Josephine","OR",1865,,42.4444444,-123.3180556
"GREENVILLE","Beaver","UT",1865,,38.2544146,-112.7124431
"HELENA","Lewis & Clark","MT",1865,,,
"HUTCHINSON","Jefferson","CO",1865,1894,39.68153,-105.14555
"JACKSON","Dakota","NE",1865,,42.4486067,-96.5647556
"KINGSTON","Lander","NV",1865,1907,39.2099294,-117.0698094
"LAST CHANCE","Placer","CA",1865,1919,39.1090687,-120.627984
"LIBERTY","Gage","NE",1865,,40.0847234,-96.4827962
"LITTLERIVER","Mendocino","CA",1865,,39.2707318,-123.7883473
"MALAD CITY","Oneida","ID",1865,,42.1915872,-112.2507986
"MARK WEST","Sonoma","CA",1865,1917,38.5028292,-122.759179
"PETROLIA","Humboldt","CA",1865,,40.3254132,-124.2869926
"SARATOGA","Santa Clara","CA",1865,,37.2557468,-122.0330804
"SHERIDAN","Douglas","NV",1865,1920,38.8982401,-119.8224006
"SHINGLE SPRINGS","El Dorado","CA",1865,,38.6604599,-120.936329
"SMARTVILLE","Yuba","CA",1865,,39.2073932,-121.2985701
"STILLWATER","Churchill","NV",1865,1959,39.5215857,-118.5470875
"STOCKTON","Tooele","UT",1865,,40.452722,-112.3607824
"SUMMERVILLE","Union","OR",1865,,45.4884699,-118.0029941
"TULALIP","Snohomish","WA",1865,1953,48.0668067,-122.2821258
"UNION RIDGE","Clark","WA",1865,1890,45.8178928,-122.7420454
"UTSALADDY","Island","WA",1865,1910,48.2517662,-122.4771042
"VALMONT","Boulder","CO",1865,1901,40.0286977,-105.2264512
"VERMILLION","Clay","SD",1865,,42.784409,-96.940162
"WELLINGTON","Lyon","NV",1865,,38.7562993,-119.3773836
"WEST CHEHALEM","Yamhill","OR",1865,1900,45.3331719,-123.0789931
"WILLOW POINT","Humboldt","NV",1865,1910,41.2557338,-117.6098494
"ALAMEDA","Bernalillo","NM",1866,1960,35.1867101,-106.6180813
"ASHLAND","Saunders","NE",1866,,41.039165,-96.368346
"AURORA","Mineral","NV",1866,1919,38.2871421,-118.9006963
"BAKER CITY","Baker","OR",1866,1911,44.7870965,-117.8371625
"BENTON","Mono","CA",1866,,37.8002103,-118.5290107
"BIRDSTON","Navarro","TX",1866,1909,31.9101606,-96.3038652
"BLACKFOOT CITY","Powell","MT",1866,1896,46.6816016,-112.5430851
"BOULDER VALLEY","Jefferson","MT",1866,1897,46.2365947,-112.1208336
"BROOKELAND","Sabine","TX",1866,,31.1526918,-93.9935221
"BRYAN","Brazos","TX",1866,,30.6755,-96.374568
"BUENA VISTA","Polk","OR",1866,1935,44.7695649,-123.1506524
"BULLARD'S BAR","Yuba","CA",1866,1914,39.4226688,-121.1388457
"CALABASAS","Santa Cruz","AZ",1866,1913,31.4673163,-110.9753657
"CENTER","Shelby","TX",1866,,31.7971003,-94.1795338
"CISCO","Placer","CA",1866,1941,39.3015691,-120.5468742
"CLIPPER GAP","Placer","CA",1866,1960,38.9693418,-121.017444
"COLFAX","Placer","CA",1866,,39.0993409,-120.9554982
"COLUMBUS","Esmeralda","NV",1866,1899,38.1102073,-118.0192767
"COYVILLE","Wilson","KS",1866,,37.6861525,-95.8974859
"DEEP HOLE","Washoe","NV",1866,1911,40.7190678,-119.4832464
"DEER LODGE CITY","Powell","MT",1866,1894,46.3971496,-112.7358719
"DELPHOS","Ottawa","KS",1866,,39.2811115,-97.7630938
"DENVER","Denver","CO",1866,,39.7510628,-104.9891497
"DETROIT","Dickinson","KS",1866,1961,38.9349995,-97.1208507
"EAGLE ROCK","Bonneville","ID",1866,1890,43.4868582,-112.045249
"EAST PORTLAND","Multnomah","OR",1866,1892,45.5153962,-122.6603733
"EMPIRE CITY","Carson City","NV",1866,1895,39.1849106,-119.7132348
"ERIE","Neosho","KS",1866,,37.5843554,-95.2409874
"FORT CUMMINGS","Luna","NM",1866,1891,32.4656414,-107.6464164
"FORT HALL","Bingham","ID",1866,1959,43.0329705,-112.4385909
"FORT RICE","Morton","ND",1866,1992,46.5261053,-100.5842878
"FORT SULLY","Sully","SD",1866,1898,44.5880366,-100.5898636
"FORT SUMNER","DeBaca","NM",1866,1907,,
"GEORGETOWN","Clear Creek","CO",1866,,39.7066284,-105.6979886
"GRANTVILLE","Jefferson","KS",1866,,39.0825144,-95.5626316
"GREELEY","Anderson","KS",1866,,38.3665649,-95.1231738
"GREENHORN","Pueblo","CO",1866,1911,37.9069531,-104.8533195
"HAUGHT'S STORE","Dallas","TX",1866,1897,,
"HAVILAH","Kern","CA",1866,1918,35.5177324,-118.5186972
"HOPETON","Merced","CA",1866,1914,37.4916032,-120.5260289
"INDEPENDENCE","Inyo","CA",1866,,36.8027102,-118.2000951
"JEFFERSON CITY","Jefferson","MT",1866,,46.3882636,-112.0274957
"LEMITAR","Socorro","NM",1866,,34.1597887,-106.9103061
"MEDINA","Jefferson","KS",1866,1901,39.0777779,-95.4210859
"MIDDLETON","Canyon","ID",1866,,43.7201616,-116.6284697
"MILLBRAE","San Mateo","CA",1866,,37.5980639,-122.4014267
"MISSOULA","Missoula","MT",1866,,46.872146,-113.9939982
"MOHAVE CITY","Mohave","AZ",1866,,35.0444453,-114.6230214
"MONMOUTH","Crawford","KS",1866,1955,37.363111,-94.9369094
"MONTANA","Labette","KS",1866,1918,37.2753392,-95.1241339
"NEW ALBANY","Wilson","KS",1866,,37.5683765,-95.9377613
"NEW HARMONY","Washington","UT",1866,,37.4797021,-113.3080072
"OCATE","Mora","NM",1866,,36.175592,-105.0480608
"OSWEGO","Labette","KS",1866,,37.1743249,-95.1172244
"PATAGONIA","Santa Cruz","AZ",1866,,31.5395378,-110.7561963
"PERRY","Jefferson","KS",1866,,39.0758335,-95.3933077
"PLEASANTVIEW","Cherokee","KS",1866,1903,37.0756188,-94.7591179
"RICKREALL","Polk","OR",1866,,44.9314326,-123.2290046
"SABINAL","Socorro","NM",1866,1907,34.4936744,-106.8075268
"SAINT THOMAS","Clark","NV",1866,1938,36.4658102,-114.3702536
"SCIPIO","Millard","UT",1866,1965,39.24496,-112.1041015
"SHERIDAN","Madison","MT",1866,,45.4554809,-112.1969372
"SHERIDAN","Yamhill","OR",1866,,45.0952778,-123.3938889
"SILVER PEAK","Esmeralda","NV",1866,,37.753542,-117.6364816
"SOMERSET","Atascosa","TX",1866,1907,,
"SOUR LAKE","Hardin","TX",1866,,30.139646,-94.412514
"SOUTH BEND","Cass","NE",1866,,41.0016652,-96.2452913
"SUGAR PINE","Tuolumne","CA",1866,1900,38.0582555,-120.2015775
"TIERRA AMARILLA","Rio Arriba","NM",1866,,36.7002922,-106.5497566
"TILLAMOOK","Tillamook","OR",1866,,45.4486111,-123.8361111
"TOWASH","Hill","TX",1866,1901,,
"WACO","McLennan","TX",1866,,31.515602,-97.20088
"WAMEGO","Pottawat","KS",1866,,,
"WHEATLAND","Yuba","CA",1866,,39.0112836,-121.4230134
"WHITE BIRD","Idaho","ID",1866,,45.7615508,-116.3006974
"WILLIAMSTOWN","Jefferson","KS",1866,1968,39.0627783,-95.3327512
"WINCHESTER","Fayette","TX",1866,,30.009388,-97.0138726
"WINNEMUCCA","Humboldt","NV",1866,,40.9735139,-117.7362405
"YUMA","Yuma","AZ",1866,,32.6870873,-114.6253592
"APISHAPA","Las Animas","CO",1867,1911,,
"ARCADIA","Crawford","KS",1867,,37.6419893,-94.6238481
"BAXTER SPRINGS","Cherokee","KS",1867,,37.0371711,-94.733268
"BEDIAS","Grimes","TX",1867,,30.775875,-95.948217
"BELMONT","Nye","NV",1867,1922,38.5960444,-116.8742436
"BENNINGTON","Bear Lake","ID",1867,1966,42.3910379,-111.3215956
"BLAKELY","Kitsap","WA",1867,1890,47.5950976,-122.4804089
"BLEAKWOOD","Newton","TX",1867,1943,30.6924253,-93.8224015
"BLOOMINGTON","Bear Lake","ID",1867,,42.1918724,-111.4013181
"BLUE CANYON","Placer","CA",1867,1927,39.2571225,-120.711046
"CAPISTRANO","Orange","CA",1867,1905,,
"CARPENTERIA","Santa Barbara","CA",1867,1900,34.394995,-119.5137339
"CASTROVILLE","Monterey","CA",1867,,36.7657904,-121.758005
"CAYUSE","Umatilla","OR",1867,,45.676427,-118.566121
"CHATFIELD","Navarro","TX",1867,,32.240649,-96.412351
"CHETOPA","Labette","KS",1867,,37.0372916,-95.0899613
"CLEBURNE","Johnson","TX",1867,,32.337703,-97.409137
"CUTHAND","Red River","TX",1867,1953,33.4676108,-95.0554974
"DAMASCUS","Clackamas","OR",1867,1904,45.417621,-122.4589783
"DIAMOND CITY","Broadwater","MT",1867,1909,46.5971602,-111.4238527
"EAGLE CREEK","Clackamas","OR",1867,,45.6409505,-121.9306365
"ECHO CITY","Summit","UT",1867,1950,40.9777244,-111.443255
"EDWARDSVILLE","Wyandotte","KS",1867,,39.0611154,-94.8196847
"ELLSWORTH","Ellsworth","KS",1867,,38.7305707,-98.2286776
"FISH HAVEN","Bear Lake","ID",1867,1962,42.0368759,-111.3963177
"FORT BAYARD","Grant","NM",1867,1965,32.7961863,-108.1503221
"FORT BENTON","Chouteau","MT",1867,,47.8230254,-110.6674366
"FORT BUFORD","Williams","ND",1867,1895,47.9863889,-104.0013889
"FORT SHAW","Cascade","MT",1867,,47.5055075,-111.8102651
"FREEPORT","Cowlitz","WA",1867,1893,,
"GALLATIN","Gallatin","MT",1867,1890,45.9277059,-111.4980234
"GRAINLAND","Butte","CA",1867,1902,39.648495,-121.8721994
"GRANITEVILLE","Nevada","CA",1867,1959,39.4407321,-120.7396623
"GREENVILLE","Plumas","CA",1867,,40.1407237,-120.9496785
"HAYS CITY","Ellis","KS",1867,1895,38.8791783,-99.3267702
"HIKO","Lincoln","NV",1867,,37.5844037,-115.2252997
"HOGE","Leavenworth","KS",1867,1901,39.1722241,-94.9949663
"HOQUIAM","Grays Harbor","WA",1867,,46.9746986,-123.8878281
"HORSE SHOE BEND","Boise","ID",1867,1968,43.9146123,-116.1979025
"HORSESHOE BEND","Boise","ID",1867,1968,43.90739,-116.200958
"HOTCREEK","Nye","NV",1867,1912,38.5143777,-116.348391
"JAMESTOWN","Boulder","CO",1867,,40.1157666,-105.3887884
"JORDAN VALLEY","Malheur","OR",1867,,42.9777778,-117.0536111
"LEBANON","Collin","TX",1867,1905,33.1131751,-96.8055557
"LIBERTY","Bear Lake","ID",1867,1920,42.3171477,-111.4521549
"LINCOLN","Polk","OR",1867,1901,45.0198409,-123.0839875
"LONDON","Nemaha","NE",1867,1895,40.423613,-95.7613835
"LOS NIETOS","Los Angeles","CA",1867,1954,33.96377,-118.07554
"LOUISVILLE","Pottawat","KS",1867,,,
"MARTINSVILLE","Nacogdoches","TX",1867,,31.6424204,-94.4141528
"MATFIELD GREEN","Chase","KS",1867,,38.1591843,-96.5605664
"MIDDLETON","Leon","TX",1867,1954,31.1751832,-95.8641207
"MONTICELLO","Napa","CA",1867,1956,38.5776843,-122.207197
"NESTOCTON","Tillamook","OR",1867,1904,45.3803838,-123.8026201
"NORTH PLATTE","Lincoln","NE",1867,,41.1238873,-100.7654232
"PANACA","Lincoln","NV",1867,,37.79052,-114.3894336
"PAPILLION","Sarpy","NE",1867,1984,41.1544433,-96.0422378
"PARAJE","Socorro","NM",1867,1910,33.5564576,-107.0569747
"PARIS","Bear Lake","ID",1867,,42.2263161,-111.3990957
"PENA BLANCA","Sandoval","NM",1867,,35.5708657,-106.3380812
"PERU","Nemaha","NE",1867,,40.4741686,-95.7336054
"PINE GROVE","Henderson","TX",1867,1906,32.1354328,-95.7969079
"PINOS ALTOS","Grant","NM",1867,1964,32.8634067,-108.2214362
"PLATTSMOUTH","Cass","NE",1867,,41.0113881,-95.8822312
"PLEASANTON","Alameda","CA",1867,,37.6624312,-121.8746789
"PORTAGE","Box Elder","UT",1867,,41.9754794,-112.2071828
"REVEILLE","Nye","NV",1867,1911,38.0043804,-116.1889371
"SAGUACHE","Saguache","CO",1867,,38.0877778,-106.1369668
"SAINT CHARLES","Bear Lake","ID",1867,,42.1138188,-111.3888175
"SAINT MARYS","Huerfano","CO",1867,1907,37.6230682,-104.7780422
"SAN DIEGO","Duval","TX",1867,,27.7644859,-98.2368313
"SANTA MARGARITA","San Luis Obispo","CA",1867,,35.3899734,-120.609057
"SANTEE AGENCY","Knox","NE",1867,1897,42.8411104,-97.8509008
"SEBASTOPOL","Sonoma","CA",1867,,38.4021359,-122.8238806
"SEWARD","Seward","NE",1867,,40.9058418,-97.0958672
"SHERMAN CITY","Cherokee","KS",1867,1894,37.2572835,-95.0571872
"SILVER CITY","Owyhee","ID",1867,1943,43.0137708,-116.7337358
"SIOUX FALLS","Minnehaha","SD",1867,,43.544256,-96.7233
"SITKA","","AK",1867,,,
"SLAUGHTER","King","WA",1867,1893,47.3073228,-122.2284532
"SOUTH CEDAR","Jackson","KS",1867,1904,39.3463854,-95.6822038
"SPOKANE BRIDGE","Spokane","WA",1867,1958,47.6943445,-117.0474218
"STRINGER","Leavenworth","KS",1867,1905,39.0013921,-95.0391356
"SUGAR LOAF","Boulder","CO",1867,1944,40.0169306,-105.4072169
"SUMNERVILLE","Ottawa","KS",1867,1895,39.1975002,-97.7364259
"TWIN RIVER","Nye","NV",1867,1893,38.9446518,-117.2753686
"TWIN SISTERS","Blanco","TX",1867,1948,30.0027124,-98.4052962
"VALLEY MILLS","Bosque","TX",1867,,31.658046,-97.471279
"WEA","Miami","KS",1867,1903,38.7152876,-94.6669011
"WETMORE","Nemaha","KS",1867,,39.6361076,-95.8077652
"WEWOKA","Seminole","OK",1867,,35.1506347,-96.4989013
"WHEATLAND","Yamhill","OR",1867,1903,45.0926185,-123.0500992
"WHITE RIVER","King","WA",1867,1890,47.4742662,-122.2515112
"WILLOW CREEK","Gallatin","MT",1867,,45.825206,-111.6446966
"WINNEBAGO","Thurston","NE",1867,,42.2358272,-96.4725338
"YOUNTVILLE","Napa","CA",1867,,38.4032447,-122.3627551
"ADAMSVILLE","Beaver","UT",1868,1954,38.2583031,-112.7938352
"AGUA NEGRA","Mora","NM",1868,1892,36.0353099,-105.388069
"ATLANTA","San Joaquin","CA",1868,1915,37.8129826,-121.1207729
"ATOKA","Atoka","OK",1868,,34.3859257,-96.1327697
"AUGUSTA","Butler","KS",1868,,37.6967592,-96.9699502
"AUMSVILLE","Marion","OR",1868,,44.8477778,-122.8761111
"BAKERSFIELD","Kern","CA",1868,,35.3694033,-119.0239905
"BEARTOWN","Powell","MT",1868,1892,,
"BEAVER CROSSING","Seward","NE",1868,,40.7786191,-97.2822684
"BISMARCK","Cuming","NE",1868,1902,41.9111141,-96.9086484
"BLACK DIAMOND","Contra Costa","CA",1868,1911,38.0288095,-121.8844028
"BLACK JACK  SPRINGS","Fayette","TX",1868,1910,29.768008,-97.0208177
"BOZEMAN","Gallatin","MT",1868,,45.6796526,-111.0385582
"BRYAN","Sweetwater","WY",1868,1901,41.5705166,-109.6820852
"BUTTE CITY","Silver Bow","MT",1868,1894,46.0038153,-112.5347447
"CALVERT","Robertson","TX",1868,,30.978164,-96.674803
"CAMP GRANT","Humboldt","CA",1868,1895,40.3395846,-123.8972616
"CANTON","Lincoln","SD",1868,,43.307177,-96.591132
"CANYON FERRY","Lewis & Clark","MT",1868,1957,,
"CAPAY","Yolo","CA",1868,,38.7076812,-122.0480266
"CARLIN","Elko","NV",1868,,40.7118622,-116.1084108
"CEDAR BLUFFS","Saunders","NE",1868,,41.3969461,-96.6114157
"CENTREVILLE","Chaffee","CO",1868,1930,38.6847187,-106.0914051
"CHAPMAN","Merrick","NE",1868,,41.0241795,-98.1592257
"CHESTER","Jefferson","KS",1868,1902,39.0950005,-95.2705277
"CLYDE","Cloud","KS",1868,,39.5911106,-97.3989229
"COLEVILLE","Mono","CA",1868,,38.5682432,-119.5087787
"COLLEGEVILLE","San Joaquin","CA",1868,1903,37.9049252,-121.147442
"CORNING","Nemaha","KS",1868,,39.6386073,-96.0247189
"CORTEZ","Lander","NV",1868,1943,40.1410312,-116.6034164
"COVE","Union","OR",1868,,45.2966667,-117.8086111
"CRETE","Saline","NE",1868,,40.6277824,-96.9614174
"CUBA","Republic","KS",1868,,37.8058453,-97.4536555
"DAVISVILLE","Yolo","CA",1868,1907,38.5449065,-121.7405167
"DAYVILLE","Grant","OR",1868,,44.4675,-119.5380556
"DIXON","Solano","CA",1868,,38.4454641,-121.8246847
"DOUGLASS","Butler","KS",1868,,37.5194642,-97.0128147
"EAGLEVILLE","Modoc","CA",1868,,41.3162846,-120.1157746
"EDEN","Lincoln","SD",1868,1892,43.1302778,-96.4536111
"EFFINGHAM","Atchison","KS",1868,,39.5251497,-95.3957315
"EIGHY MILE GROVE","Cass","NE",1868,1893,40.9513886,-95.9994558
"ELIZABETHTOWN","Colfax","NM",1868,1931,36.619198,-105.2844501
"ELMWOOD","Cass","NE",1868,,40.8416672,-96.2936215
"EMIGRANT GAP","Placer","CA",1868,,39.2976784,-120.6716011
"FAIR VIEW","Wilson","TX",1868,1908,29.1124671,-98.3230676
"FALL LEAF","Leavenworth","KS",1868,1894,38.9741699,-95.1105257
"FAME","Greenwood","KS",1868,1920,37.7958658,-96.1266633
"FARLINVILLE","Linn","KS",1868,1917,38.2333583,-94.8538516
"FARMERSVILLE","Tulare","CA",1868,,36.3005061,-119.2070545
"FARMINGTON","Atchison","KS",1868,1940,39.5186091,-95.3096949
"FORT BIDWELL","Modoc","CA",1868,,41.8560019,-120.1518942
"FORT FRED STEELE","Carbon","WY",1868,1967,41.7780155,-106.9464303
"FORT TOTTEN","Benson","ND",1868,,47.984708,-98.993897
"FREDONIA","Wilson","KS",1868,,37.5316603,-95.8253602
"FRENCHTOWN","Missoula","MT",1868,,47.0149221,-114.2298394
"GIRARD","Crawford","KS",1868,,37.5099817,-94.8511301
"GLENN","Johnson","KS",1868,1895,38.9888948,-94.6669027
"GRANITE","Chaffee","CO",1868,1966,39.0436045,-106.2633553
"GUILFORD","Wilson","KS",1868,1922,37.5992171,-95.7197037
"HAMILTON","White Pine","NV",1868,1931,39.2529882,-115.4864251
"HANOVER","Washington","KS",1868,,39.8925172,-96.8735321
"HESPER","Douglas","KS",1868,1900,38.8986161,-95.0746913
"HILLSDALE","Nemaha","NE",1868,1891,40.2883337,-95.6013753
"HITES COVE","Mariposa","CA",1868,1890,37.6407644,-119.8490623
"KALAMA","Cowlitz","WA",1868,,46.0084472,-122.8445509
"KANOSH","Millard","UT",1868,,38.8013558,-112.4374387
"KEELVILLE","Cherokee","KS",1868,1905,37.0311783,-94.922733
"KERNVILLE","Kern","CA",1868,,35.7571732,-118.4178625
"KIOWA","Elbert","CO",1868,,39.3471023,-104.4592125
"LA CUEVA","Mora","NM",1868,1961,35.941705,-105.2491779
"LAKE CITY","Modoc","CA",1868,,41.6426708,-120.2168926
"LAPWAI","Nez Perce","ID",1868,,46.3959975,-116.8018174
"LENAPE","Leavenworth","KS",1868,1943,38.9972262,-94.9508002
"LEWISVILLE","Polk","OR",1868,1905,44.7881744,-123.3453795
"LINCOLN","Lancaster","NE",1868,,40.8000011,-96.6669599
"LINCOLNVILLE","Marion","KS",1868,,38.4933471,-96.9600163
"LINDSEY","Ottawa","KS",1868,1942,39.0936114,-97.6780908
"LOWELL","Cherokee","KS",1868,1905,37.0486746,-94.7016158
"LOYAL VALLEY","Mason","TX",1868,1919,30.5757414,-99.0078271
"MARKET LAKE","Jefferson","ID",1868,1910,43.7712986,-112.1316412
"MARTINS BLUFF","Cowlitz","WA",1868,1916,45.9634475,-122.8114938
"MAYSFIELD","Milam","TX",1868,,30.8796338,-96.8258132
"MENARDVILLE","Menard","TX",1868,1910,,
"MILFORD","Geary","KS",1868,,39.1683299,-96.9125112
"MILFORD","Seward","NE",1868,,40.7744509,-97.0505887
"MILLER GROVE","Hopkins","TX",1868,1954,33.0242833,-95.8027408
"MINNEAPOLIS","Ottawa","KS",1868,,39.126625,-97.6990414
"MONUMENT","Logan","KS",1868,,39.1040979,-101.0111878
"NETAWAKA","Jackson","KS",1868,,39.6027744,-95.7183173
"NEWMAN","Jefferson","KS",1868,1969,39.0805555,-95.4646977
"NEWPORT","Lincoln","OR",1868,,44.6391667,-124.0463889
"NEWVILLE","Glenn","CA",1868,1918,39.790989,-122.5283302
"NORFOLK","Madison","NE",1868,,42.0283379,-97.4169964
"NORTH POWDER","Union","OR",1868,,45.0284737,-117.9199386
"NORWOOD","Franklin","KS",1868,1914,38.7097308,-95.2469176
"OAK MILLS","Atchison","KS",1868,1945,39.4455525,-95.0105206
"OAKLAND","Burt","NE",1868,,41.8358265,-96.4669709
"OSAGE MISSION","Neosho","KS",1868,1895,37.5189412,-95.1733086
"OSEWMA","Ottawa","OK",1868,1909,36.7297957,-94.890792
"PAJARITO","Bernalillo","NM",1868,1929,34.9864382,-106.6966923
"PERCY","Carbon","WY",1868,1900,41.798574,-106.5097469
"PHILLIPSBURG","Granite","MT",1868,,46.3321477,-113.2942303
"PHILOMATH","Benton","OR",1868,,44.535,-123.3561111
"PILOT ROCK","Umatilla","OR",1868,,45.4827778,-118.8308333
"PINEGROVE","Lyon","NV",1868,1912,38.6782485,-119.1240401
"PLEASANT VALLEY","Baker","OR",1868,1962,44.6743242,-117.6304869
"POINT OF ROCKS","Sweetwater","WY",1868,1966,41.6802396,-108.7662231
"PRESIDIO","Presidio","TX",1868,,29.5608144,-104.3507693
"PURISSAMA","San Mateo","CA",1868,1901,37.4041084,-122.4135857
"RADERSBURG","Broadwater","MT",1868,1966,46.1957622,-111.6319188
"RED OAK","Latimer","OK",1868,,34.9550648,-95.0794128
"RENO","Washoe","NV",1868,,39.524633,-119.8118581
"RIVERDALE","Weber","UT",1868,1903,41.1768888,-112.0038311
"ROCK CREEK","Albany","WY",1868,1910,41.7066344,-105.9755586
"ROCKLIN","Placer","CA",1868,,38.7907339,-121.2357828
"ROCKPORT","Aransas","TX",1868,,28.03992,-97.057138
"ROCKY BAR","Elmore","ID",1868,1946,43.6890636,-115.2900855
"SAN FELIPE","Santa Clara","CA",1868,1902,36.970782,-121.4191017
"SHACKELFORD","Henderson","TX",1868,1974,,
"SHAWNEE MISSION","Johnson","KS",1868,,39.0333386,-94.6249571
"SHERIDAN","Placer","CA",1868,,38.9796179,-121.3755114
"SHERMAN","Albany","WY",1868,1919,41.0977612,-105.3508181
"SLATERSVILLE","Weber","UT",1868,1897,41.2516113,-112.0254973
"SPADRA","Los Angeles","CA",1868,1955,34.0522329,-117.8000587
"SPRINGFIELD","Lane","OR",1868,,44.0536111,-123.0158333
"STEVENSVILLE","Ravalli","MT",1868,,46.5099225,-114.0931588
"SUMMIT","Benton","OR",1868,1959,43.2453881,-124.2239995
"SUN RIVER","Cascade","MT",1868,,47.5332872,-111.7213719
"SYCAMORE SPRINGS","Butler","KS",1868,1906,38.0375184,-96.6655737
"TIMBERVILLE","Dodge","NE",1868,1894,41.5416672,-96.6266939
"TOLEDO","Lincoln","OR",1868,,44.6175,-123.9202778
"TRUCKEE","Nevada","CA",1868,,39.3282397,-120.1843644
"TULAROSA","Otero","NM",1868,,33.073973,-106.0186025
"UTE CREEK","Colfax","NM",1868,1895,36.5580893,-105.1150045
"VINLAND","Douglas","KS",1868,1954,38.83945,-95.1821935
"VIRGINIA DALE","Larimer","CO",1868,1967,40.9616513,-105.3594306
"WADSWORTH","Washoe","NV",1868,,39.6318566,-119.2871144
"WATERVILLE","Marshall","KS",1868,,39.6911121,-96.7475191
"WHITE ROCK","Hunt","TX",1868,1903,33.2690016,-96.1191401
"WYOMING","Albany","WY",1868,1898,41.4774748,-105.6366568
"YAQUINA","Lincoln","OR",1868,1958,44.6020624,-124.0087275
"YORKVILLE","Mendocino","CA",1868,,38.8979586,-123.2144507
"YOU BET","Nevada","CA",1868,1903,39.2090633,-120.899942
"ALEMAN","Sierra","NM",1869,1890,32.9897967,-107.0075202
"ARCOLA","Fort Bend","TX",1869,1920,29.4960702,-95.4657756
"ARROYO GRANDE","San Luis Obispo","CA",1869,,35.1205315,-120.5776691
"ARVONIA","Osage","KS",1869,1901,38.5500114,-95.8944336
"ASHERVILLE","Mitchell","KS",1869,1970,39.4058375,-97.9769886
"ATLANTIC CITY","Fremont","WY",1869,1954,42.4966221,-108.7306677
"BALD MOUNTAIN","Gilpin","CO",1869,1921,39.7960988,-105.5461095
"BALLARDS FALLS","Washington","KS",1869,1902,39.7833359,-96.8441895
"BELLEVUE","Yamhill","OR",1869,1904,45.1153935,-123.3162168
"BELVOIR","Douglas","KS",1869,1903,38.9202803,-95.4280317
"BIJOU BASIN","Elbert","CO",1869,1907,39.1622116,-104.4241331
"BITTER CREEK","Sweetwater","WY",1869,1971,41.551073,-108.5553837
"BLACK BEAR","Siskiyou","CA",1869,1941,41.2584696,-123.1533768
"BLAIR","Washington","NE",1869,,41.5444379,-96.1250151
"BLUFF","Fayette","TX",1869,1904,,
"BOSTON MILLS","Linn","OR",1869,1971,44.4609563,-123.0817593
"BREMOND","Robertson","TX",1869,,31.16343,-96.676569
"CARBON","Carbon","WY",1869,1907,41.8485752,-106.3769657
"CARBONDALE","Osage","KS",1869,,38.8186155,-95.6891498
"CARTER","Uinta","WY",1869,1967,41.23967,-110.713227
"CEDARVILLE","Modoc","CA",1869,,41.5290606,-120.1732781
"CENTRAL CITY","Gilpin","CO",1869,,39.8019322,-105.5141639
"CERESCO","Saunders","NE",1869,,41.0572232,-96.6447377
"CERRO GORDO","Inyo","CA",1869,1895,36.5393799,-117.791744
"CHENANGO","Brazoria","TX",1869,1938,29.2541306,-95.4588295
"COFFEYVILLE","Montgomery","KS",1869,,37.0373005,-95.6163665
"COLUMBUS","Cherokee","KS",1869,,37.1692278,-94.8441239
"COMPTON","Los Angeles","CA",1869,,33.89109,-118.22686
"CORINNE","Box Elder","UT",1869,,41.5471553,-112.1096707
"CROPSEY","Gage","NE",1869,1902,,
"EAGLE","Cass","NE",1869,,40.8166665,-96.4302879
"EAGLE SPRINGS","Coryell","TX",1869,1901,31.3504473,-97.4761249
"EHRENBURG","La Paz","AZ",1869,,33.6041914,-114.5252322
"ELK CITY","Montgomery","KS",1869,,37.2850609,-95.9019291
"ELKO","Elko","NV",1869,,40.8340878,-115.7631232
"EMERALD","Anderson","KS",1869,1903,,
"ESKRIDGE","Wabaunsee","KS",1869,,38.8573783,-96.1037352
"FAIRBURY","Jefferson","NE",1869,,40.1372247,-97.1805914
"FAIRVIEW","Brown","KS",1869,,39.8411112,-95.7280415
"FAIRVIEW","Lincoln","SD",1869,,43.2218,-96.48858
"FARMERS VALLEY","Hamilton","NE",1869,1894,40.7216773,-97.8536606
"FLORENCE","Pinal","AZ",1869,,33.0314508,-111.3873431
"FLORIN","Sacramento","CA",1869,1959,38.4960187,-121.4088416
"FORT GRIFFIN","Shackelford","TX",1869,1943,32.9320557,-99.2300771
"FORT SILL","Comanche","OK",1869,1917,34.6814486,-98.519255
"FORT WRANGEL","","AK",1869,1902,,
"FRANKFORT","Marshall","KS",1869,,39.7055548,-96.4169555
"FRENCH GULCH","Deer Lodge","MT",1869,1913,45.9443693,-113.0314324
"FULTON","Aransas","TX",1869,,28.063101,-97.036686
"GABILAN","Monterey","CA",1869,1900,36.4284159,-121.320177
"GALT","Sacramento","CA",1869,,38.2546373,-121.2999485
"GILMORE","Sarpy","NE",1869,1908,41.1444433,-95.951402
"GLASCO","Cloud","KS",1869,,39.361646,-97.8353132
"GLENWOOD","Leavenworth","KS",1869,1902,39.1091695,-94.9455212
"GOLCONDA","Humboldt","NV",1869,,40.9565692,-117.4917883
"GRANBURY","Hood","TX",1869,,32.447422,-97.785793
"GRANGER","Sweetwater","WY",1869,,41.5935669,-109.9687582
"HALLSVILLE","Harrison","TX",1869,,32.504513,-94.5716007
"HARVEYVILLE","Wabaunsee","KS",1869,,38.7855612,-95.9638787
"HEARNE","Robertson","TX",1869,,30.876911,-96.599436
"HEBRON","Thayer","NE",1869,,40.1663933,-97.5858752
"HOLLING","Douglas","KS",1869,1900,38.8186169,-95.2419172
"HOLLISTER","San Benito","CA",1869,,36.8510657,-121.4007687
"IDRIA","San Benito","CA",1869,1894,36.4169007,-120.6743379
"IRONWOOD","Liberty","TX",1869,1900,30.3210425,-94.7504803
"JUANIATA","Pueblo","CO",1869,1893,,
"KELTON","Box Elder","UT",1869,1942,41.7460327,-113.1063779
"KIT CARSON","Cheyenne","CO",1869,,38.7611129,-102.7893667
"KODIAK","","AK",1869,,,
"LA CYGNE","Linn","KS",1869,,38.3500206,-94.7613476
"LADORE","Neosho","KS",1869,1901,37.4056141,-95.30692
"LAWRENCEBURG","Cloud","KS",1869,1901,,
"LEESBURGH","Lemhi","ID",1869,1894,45.223808,-114.1139647
"LENEXA","Johnson","KS",1869,,38.9536174,-94.7335709
"LEVAN","Juab","UT",1869,,39.5585686,-111.8618734
"LINCOLN","Lewis & Clark","MT",1869,,,
"LINDSBORG","McPherson","KS",1869,,38.5736176,-97.6744838
"LITTLETON","Arapahoe","CO",1869,,39.6129752,-105.016656
"LONE OAK","Hunt","TX",1869,,32.999132,-95.941953
"LONG VALLEY","Lassen","CA",1869,1912,40.0285146,-120.1063162
"LOOKOUT","Albany","WY",1869,1948,41.665804,-105.80222
"LOWER BOISE","Canyon","ID",1869,1901,43.7598834,-116.8843163
"LYONS","Burt","NE",1869,,41.9374929,-96.4772509
"MADISON","Madison","NE",1869,,41.8283401,-97.455048
"MAPLE CREEK","Dodge","NE",1869,1901,41.5397195,-96.4539126
"McCLELLAN GULCH","Powell","MT",1869,1890,,
"McDOWELL","Maricopa","AZ",1869,1917,33.6367105,-111.6745826
"MEADOW CREEK","Madison","MT",1869,1908,45.4588165,-111.7619212
"MEDICINE BOW","Carbon","WY",1869,,41.8955212,-106.2047385
"MIDDLETON","Washington","OR",1869,1905,45.3536111,-122.8663889
"MONITOR","Marion","OR",1869,1953,45.1015099,-122.7481463
"MONTPELIER","Bear Lake","ID",1869,,42.3221498,-111.2977044
"MONUMENT","El Paso","CO",1869,,39.0940644,-104.8661543
"MOORES STATION","Butte","CA",1869,1892,39.3290561,-121.5338564
"MOSS BLUFF","Liberty","TX",1869,1930,29.9374403,-94.7632547
"MULBERRY GROVE","Crawford","KS",1869,1892,37.5569911,-94.6219034
"NATIONAL CITY","San Diego","CA",1869,,32.6710181,-117.0971263
"NAVIDAD","Jackson","TX",1869,1954,29.0655358,-96.7691462
"NEW IDRIA","San Benito","CA",1869,1894,36.4144008,-120.6746157
"NEWBERG","Yamhill","OR",1869,,45.3001179,-122.9731565
"NORTH BEND","Dodge","NE",1869,,41.4619485,-96.7797515
"OCHELTREE","Johnson","KS",1869,1954,38.7686197,-94.8160719
"PANAMA","Lancaster","NE",1869,,40.5977776,-96.5108481
"PENDLETON","Umatilla","OR",1869,,45.6755556,-118.805
"PHOENIX","Maricopa","AZ",1869,,33.4483771,-112.0740373
"PIEDMONT","Uinta","WY",1869,1967,41.2160592,-110.6273902
"PINE BLUFF","Laramie","WY",1869,1923,41.1819261,-104.0691174
"PINO","Placer","CA",1869,1890,38.8212889,-121.1930041
"PLAINSBERG","Merced","CA",1869,1907,37.2329983,-120.324348
"PLEASANTHILL","Saline","NE",1869,1912,40.5866716,-97.0817014
"PLEASANTON","Linn","KS",1869,,38.1778054,-94.7113471
"POMEROY","Wyandotte","KS",1869,1906,39.1572255,-94.7596829
"PRYOR CREEK","Mayes","OK",1869,1909,36.3084275,-95.3169136
"QUINCY","Greenwood","KS",1869,1975,37.8819768,-95.992769
"ROANS PRAIRIE","Grimes","TX",1869,1975,30.5843658,-95.9438416
"ROXTON","Lamar","TX",1869,,33.5447125,-95.7249483
"RYE VALLEY","Baker","OR",1869,1935,44.4637717,-117.4774174
"SABINETOWN","Sabine","TX",1869,1935,31.4029597,-93.7085145
"SAINT BRIDGET","Marshall","KS",1869,1906,39.9661112,-96.2638996
"SAINT LOUIS","Broadwater","MT",1869,1895,46.3385415,-111.6994221
"SALMON CITY","Lemhi","ID",1869,1895,,
"SAN BENITO","San Benito","CA",1869,1959,36.8007801,-121.3652196
"SAN MARCIAL","Socorro","NM",1869,1944,33.7000664,-106.9872535
"SANTA MARIA","Santa Barbara","CA",1869,,34.943,-120.43587
"SCHUYLER","Colfax","NE",1869,,41.4472309,-97.0594786
"SCOTTSVILLE","Harrison","TX",1869,,32.519524,-94.249168
"SEVERANCE","Doniphan","KS",1869,,39.7672208,-95.2499751
"SHOVEL MOUNT","Burnet","TX",1869,1905,,
"SILVER STAR","Madison","MT",1869,,45.6846484,-112.3327811
"SILVERBOW","Silver Bow","MT",1869,1984,45.9929813,-112.6772515
"SKIDDY","Morris","KS",1869,1953,38.8680578,-96.7944533
"SKULL VALLEY","Yavapai","AZ",1869,,34.501896,-112.6871074
"SOLEDAD","Monterey","CA",1869,,36.4367297,-121.3254066
"STAFFORD","Fort  Bend","TX",1869,,,
"SWAN LAKE","Turner","SD",1869,1893,43.231653,-97.1067199
"TACOMA","Pierce","WA",1869,,47.2528769,-122.4442906
"TEHUACANA","Limestone","TX",1869,,31.741743,-96.5464896
"TERRYVILLE","Dewitt","TX",1869,1907,,
"TOANA","Elko","NV",1869,1906,41.131591,-114.4230802
"TUALITIN","Washington","OR",1869,1915,45.3840077,-122.7639851
"TWIN BRIDGES","Madison","MT",1869,,45.5443703,-112.331112
"UINTAH","Weber","UT",1869,1919,41.1479994,-111.9202182
"ULYSSES","Butler","NE",1869,,41.0719563,-97.201984
"UNIONVILLE","Lewis & Clark","MT",1869,1894,,
"VALLEY","Douglas","NE",1869,,41.3127771,-96.3461353
"VALLEY BROOK","Osage","KS",1869,1890,38.7186178,-95.5655367
"VERDI","Washoe","NV",1869,,39.5182427,-119.9888113
"WAHOO","Saunders","NE",1869,,41.2127805,-96.6269694
"WAKEFIELD","Clay","KS",1869,,39.2131381,-97.0164921
"WASATCH","Summit","UT",1869,1951,40.4968993,-111.4099049
"WASHINGTON GULCH","Powell","MT",1869,1907,46.7679919,-112.6842055
"WELDON","Houston","TX",1869,1976,31.0235184,-95.5702219
"WELLS","Elko","NV",1869,,41.111311,-114.9639345
"WESTON","Umatilla","OR",1869,,45.813744,-118.424688
"WHITE CHURCH","Wyandotte","KS",1869,1907,39.1305592,-94.7760723
"WHITE HALL","Jefferson","MT",1869,,45.8707598,-112.0974942
